station_id,state,station_name,latitude,longitude,html_url,rss_url,xml_url
CYYC,AB,Calgary International Airport,51.11667,-114.01667,https://forecast.weather.gov/data/obhistory/CYYC.html,https://forecast.weather.gov/xml/current_obs/CYYC.rss,https://forecast.weather.gov/xml/current_obs/CYYC.xml
CWVI,AB,Vegreville Automatic Weather Reporting System,53.61667,-112.03333,https://forecast.weather.gov/data/obhistory/CWVI.html,https://forecast.weather.gov/xml/current_obs/CWVI.rss,https://forecast.weather.gov/xml/current_obs/CWVI.xml
CWCT,AB,Coronation Automated Reporting Station,52.06667,-111.46667,https://forecast.weather.gov/data/obhistory/CWCT.html,https://forecast.weather.gov/xml/current_obs/CWCT.rss,https://forecast.weather.gov/xml/current_obs/CWCT.xml
CWGM,AB,Waterton Park Gate,49.13333,-113.8,https://forecast.weather.gov/data/obhistory/CWGM.html,https://forecast.weather.gov/xml/current_obs/CWGM.rss,https://forecast.weather.gov/xml/current_obs/CWGM.xml
CYEG,AB,Edmonton International Airport,53.3,-113.58333,https://forecast.weather.gov/data/obhistory/CYEG.html,https://forecast.weather.gov/xml/current_obs/CYEG.rss,https://forecast.weather.gov/xml/current_obs/CYEG.xml
CXEG,AB,"Edmonton International CS , Alta.",53.3,-113.6,https://forecast.weather.gov/data/obhistory/CXEG.html,https://forecast.weather.gov/xml/current_obs/CXEG.rss,https://forecast.weather.gov/xml/current_obs/CXEG.xml
CXEC,AB,"Edmonton Municipal CR10 , Alta.",53.56667,-113.51667,https://forecast.weather.gov/data/obhistory/CXEC.html,https://forecast.weather.gov/xml/current_obs/CXEC.rss,https://forecast.weather.gov/xml/current_obs/CXEC.xml
CZZJ,AB,EDSON CR10,53.58,-116.47,https://forecast.weather.gov/data/obhistory/CZZJ.html,https://forecast.weather.gov/xml/current_obs/CZZJ.rss,https://forecast.weather.gov/xml/current_obs/CZZJ.xml
CXMM,AB,"Fort McMurray CS, Alta.",56.65,-111.21667,https://forecast.weather.gov/data/obhistory/CXMM.html,https://forecast.weather.gov/xml/current_obs/CXMM.rss,https://forecast.weather.gov/xml/current_obs/CXMM.xml
CWRM,AB,Rocky House Marine Aviation Reporting Station,52.43333,-114.93333,https://forecast.weather.gov/data/obhistory/CWRM.html,https://forecast.weather.gov/xml/current_obs/CWRM.rss,https://forecast.weather.gov/xml/current_obs/CWRM.xml
CWJW,AB,Jasper Warden Automated Reporting Station,52.93333,-118.31667,https://forecast.weather.gov/data/obhistory/CWJW.html,https://forecast.weather.gov/xml/current_obs/CWJW.rss,https://forecast.weather.gov/xml/current_obs/CWJW.xml
CWAV,AB,Sundre,51.76667,-114.68333,https://forecast.weather.gov/data/obhistory/CWAV.html,https://forecast.weather.gov/xml/current_obs/CWAV.rss,https://forecast.weather.gov/xml/current_obs/CWAV.xml
CWBO,AB,Brooks Automatic Weather Reporting System,50.55,-111.85,https://forecast.weather.gov/data/obhistory/CWBO.html,https://forecast.weather.gov/xml/current_obs/CWBO.rss,https://forecast.weather.gov/xml/current_obs/CWBO.xml
CWDK,AB,Claresholm Automatic Weather Reporting System,50.01667,-113.63333,https://forecast.weather.gov/data/obhistory/CWDK.html,https://forecast.weather.gov/xml/current_obs/CWDK.rss,https://forecast.weather.gov/xml/current_obs/CWDK.xml
CWDZ,AB,Drumheller East,51.44504,-112.67654,https://forecast.weather.gov/data/obhistory/CWDZ.html,https://forecast.weather.gov/xml/current_obs/CWDZ.rss,https://forecast.weather.gov/xml/current_obs/CWDZ.xml
CWFJ,AB,Cardston Automated Reporting Station,49.2,-113.28333,https://forecast.weather.gov/data/obhistory/CWFJ.html,https://forecast.weather.gov/xml/current_obs/CWFJ.rss,https://forecast.weather.gov/xml/current_obs/CWFJ.xml
CWGY,AB,Esther 1,51.66667,-110.2,https://forecast.weather.gov/data/obhistory/CWGY.html,https://forecast.weather.gov/xml/current_obs/CWGY.rss,https://forecast.weather.gov/xml/current_obs/CWGY.xml
CWLB,AB,Lac La Biche,54.76898,-112.02364,https://forecast.weather.gov/data/obhistory/CWLB.html,https://forecast.weather.gov/xml/current_obs/CWLB.rss,https://forecast.weather.gov/xml/current_obs/CWLB.xml
CWOE,AB,Onefour Automatic Weather Reporting System,49.11667,-110.46667,https://forecast.weather.gov/data/obhistory/CWOE.html,https://forecast.weather.gov/xml/current_obs/CWOE.rss,https://forecast.weather.gov/xml/current_obs/CWOE.xml
CWRT,AB,Crowsnest,49.63333,-114.48333,https://forecast.weather.gov/data/obhistory/CWRT.html,https://forecast.weather.gov/xml/current_obs/CWRT.rss,https://forecast.weather.gov/xml/current_obs/CWRT.xml
CWRY,AB,Milk River,49.13333,-112.05,https://forecast.weather.gov/data/obhistory/CWRY.html,https://forecast.weather.gov/xml/current_obs/CWRY.rss,https://forecast.weather.gov/xml/current_obs/CWRY.xml
CWXA,AB,Bow Valley,51.08333,-115.06667,https://forecast.weather.gov/data/obhistory/CWXA.html,https://forecast.weather.gov/xml/current_obs/CWXA.rss,https://forecast.weather.gov/xml/current_obs/CWXA.xml
CWXL,AB,Bow Island,49.63333,-111.45,https://forecast.weather.gov/data/obhistory/CWXL.html,https://forecast.weather.gov/xml/current_obs/CWXL.rss,https://forecast.weather.gov/xml/current_obs/CWXL.xml
CWZG,AB,Banff Marine Aviation Reporting Station,51.2,-115.55,https://forecast.weather.gov/data/obhistory/CWZG.html,https://forecast.weather.gov/xml/current_obs/CWZG.rss,https://forecast.weather.gov/xml/current_obs/CWZG.xml
PABV,AK,"Birchwood, Birchwood Airport",61.41667,-149.51667,https://forecast.weather.gov/data/obhistory/PABV.html,https://forecast.weather.gov/xml/current_obs/PABV.rss,https://forecast.weather.gov/xml/current_obs/PABV.xml
PASA,AK,Savoonga Airport,63.68333,-170.5,https://forecast.weather.gov/data/obhistory/PASA.html,https://forecast.weather.gov/xml/current_obs/PASA.rss,https://forecast.weather.gov/xml/current_obs/PASA.xml
PAWD,AK,Seward,60.11667,-149.45,https://forecast.weather.gov/data/obhistory/PAWD.html,https://forecast.weather.gov/xml/current_obs/PAWD.rss,https://forecast.weather.gov/xml/current_obs/PAWD.xml
PFCB,AK,Chenega Bay Airport,60.07856,-147.99473,https://forecast.weather.gov/data/obhistory/PFCB.html,https://forecast.weather.gov/xml/current_obs/PFCB.rss,https://forecast.weather.gov/xml/current_obs/PFCB.xml
PASX,AK,Soldotna,60.48333,-151.03333,https://forecast.weather.gov/data/obhistory/PASX.html,https://forecast.weather.gov/xml/current_obs/PASX.rss,https://forecast.weather.gov/xml/current_obs/PASX.xml
PABE,AK,"Bethel, Bethel Airport",60.77972,-161.83778,https://forecast.weather.gov/data/obhistory/PABE.html,https://forecast.weather.gov/xml/current_obs/PABE.rss,https://forecast.weather.gov/xml/current_obs/PABE.xml
PAJN,AK,"Juneau, Juneau International Airport",58.35472,-134.57611,https://forecast.weather.gov/data/obhistory/PAJN.html,https://forecast.weather.gov/xml/current_obs/PAJN.rss,https://forecast.weather.gov/xml/current_obs/PAJN.xml
PAFA,AK,"Fairbanks, Fairbanks International Airport",64.80389,-147.87611,https://forecast.weather.gov/data/obhistory/PAFA.html,https://forecast.weather.gov/xml/current_obs/PAFA.rss,https://forecast.weather.gov/xml/current_obs/PAFA.xml
PAOM,AK,"Nome, Nome Airport",64.51194,-165.445,https://forecast.weather.gov/data/obhistory/PAOM.html,https://forecast.weather.gov/xml/current_obs/PAOM.rss,https://forecast.weather.gov/xml/current_obs/PAOM.xml
PABI,AK,"Delta Junction/Ft Greely, Allen Army Airfield",64,-145.73333,https://forecast.weather.gov/data/obhistory/PABI.html,https://forecast.weather.gov/xml/current_obs/PABI.rss,https://forecast.weather.gov/xml/current_obs/PABI.xml
PATA,AK,"Tanana, Calhoun Memorial Airport",65.16667,-152.1,https://forecast.weather.gov/data/obhistory/PATA.html,https://forecast.weather.gov/xml/current_obs/PATA.rss,https://forecast.weather.gov/xml/current_obs/PATA.xml
PAOH,AK,Hoonah - Hoonah Seaplane Base,58.097,-135.414,https://forecast.weather.gov/data/obhistory/PAOH.html,https://forecast.weather.gov/xml/current_obs/PAOH.rss,https://forecast.weather.gov/xml/current_obs/PAOH.xml
PAFE,AK,Kake - Kake Airport,56.964,-133.913,https://forecast.weather.gov/data/obhistory/PAFE.html,https://forecast.weather.gov/xml/current_obs/PAFE.rss,https://forecast.weather.gov/xml/current_obs/PAFE.xml
PASM,AK,"St. Mary's, St. Mary's Airport",62.05,-163.3,https://forecast.weather.gov/data/obhistory/PASM.html,https://forecast.weather.gov/xml/current_obs/PASM.rss,https://forecast.weather.gov/xml/current_obs/PASM.xml
PAKT,AK,"Ketchikan, Ketchikan International Airport",55.35556,-131.71361,https://forecast.weather.gov/data/obhistory/PAKT.html,https://forecast.weather.gov/xml/current_obs/PAKT.rss,https://forecast.weather.gov/xml/current_obs/PAKT.xml
PAOR,AK,"Northway, Northway Airport",62.96111,-141.92889,https://forecast.weather.gov/data/obhistory/PAOR.html,https://forecast.weather.gov/xml/current_obs/PAOR.rss,https://forecast.weather.gov/xml/current_obs/PAOR.xml
PATK,AK,"Talkeetna, Talkeetna Airport",62.32056,-150.09361,https://forecast.weather.gov/data/obhistory/PATK.html,https://forecast.weather.gov/xml/current_obs/PATK.rss,https://forecast.weather.gov/xml/current_obs/PATK.xml
PAOT,AK,Ralph Wien Memorial Airport,66.88576,-162.60624,https://forecast.weather.gov/data/obhistory/PAOT.html,https://forecast.weather.gov/xml/current_obs/PAOT.rss,https://forecast.weather.gov/xml/current_obs/PAOT.xml
PATG,AK,"Togiac Village, Togiak Airport",59.05,-160.4,https://forecast.weather.gov/data/obhistory/PATG.html,https://forecast.weather.gov/xml/current_obs/PATG.rss,https://forecast.weather.gov/xml/current_obs/PATG.xml
PABR,AK,Wiley Post-Will Rogers Memorial Airport,71.28528,-156.76583,https://forecast.weather.gov/data/obhistory/PABR.html,https://forecast.weather.gov/xml/current_obs/PABR.rss,https://forecast.weather.gov/xml/current_obs/PABR.xml
PABA,AK,"Barter Island, Barter Island LRRS Airport",70.13389,-143.57694,https://forecast.weather.gov/data/obhistory/PABA.html,https://forecast.weather.gov/xml/current_obs/PABA.rss,https://forecast.weather.gov/xml/current_obs/PABA.xml
PALH,AK,"Anchorage, Lake Hood Seaplane Base",61.18333,-149.96667,https://forecast.weather.gov/data/obhistory/PALH.html,https://forecast.weather.gov/xml/current_obs/PALH.rss,https://forecast.weather.gov/xml/current_obs/PALH.xml
PABT,AK,"Bettles, Bettles Airport",66.91667,-151.51667,https://forecast.weather.gov/data/obhistory/PABT.html,https://forecast.weather.gov/xml/current_obs/PABT.rss,https://forecast.weather.gov/xml/current_obs/PABT.xml
PAAK,AK,"Atka, Atka Airport",52.22028,-174.20639,https://forecast.weather.gov/data/obhistory/PAAK.html,https://forecast.weather.gov/xml/current_obs/PAAK.rss,https://forecast.weather.gov/xml/current_obs/PAAK.xml
PAKI,AK,"Kipnuk, Kipnuk Airport",59.93278,-164.03028,https://forecast.weather.gov/data/obhistory/PAKI.html,https://forecast.weather.gov/xml/current_obs/PAKI.rss,https://forecast.weather.gov/xml/current_obs/PAKI.xml
PAAQ,AK,"Palmer, Palmer Municipal Airport",61.6,-149.08333,https://forecast.weather.gov/data/obhistory/PAAQ.html,https://forecast.weather.gov/xml/current_obs/PAAQ.rss,https://forecast.weather.gov/xml/current_obs/PAAQ.xml
PABL,AK,"Buckland, Buckland Airport",65.98222,-161.15194,https://forecast.weather.gov/data/obhistory/PABL.html,https://forecast.weather.gov/xml/current_obs/PABL.rss,https://forecast.weather.gov/xml/current_obs/PABL.xml
PACZ,AK,"Cape Romanzof, Cape Romanzof LRRS Airport",61.78333,-166.03333,https://forecast.weather.gov/data/obhistory/PACZ.html,https://forecast.weather.gov/xml/current_obs/PACZ.rss,https://forecast.weather.gov/xml/current_obs/PACZ.xml
PADE,AK,"Deering, Deering/New Airport",66.08333,-162.75,https://forecast.weather.gov/data/obhistory/PADE.html,https://forecast.weather.gov/xml/current_obs/PADE.rss,https://forecast.weather.gov/xml/current_obs/PADE.xml
PAED,AK,"Anchorage, Elmendorf Air Force Base",61.25306,-149.79389,https://forecast.weather.gov/data/obhistory/PAED.html,https://forecast.weather.gov/xml/current_obs/PAED.rss,https://forecast.weather.gov/xml/current_obs/PAED.xml
PAEH,AK,"Cape Newenham, Cape Newenham LRRS Airport",58.65,-162.06667,https://forecast.weather.gov/data/obhistory/PAEH.html,https://forecast.weather.gov/xml/current_obs/PAEH.rss,https://forecast.weather.gov/xml/current_obs/PAEH.xml
PAKU,AK,"Kuparuk, Ugnu-Kuparuk Airport",70.31667,-149.58333,https://forecast.weather.gov/data/obhistory/PAKU.html,https://forecast.weather.gov/xml/current_obs/PAKU.rss,https://forecast.weather.gov/xml/current_obs/PAKU.xml
PAEI,AK,"Fairbanks, Eielson Air Force Base",64.65,-147.1,https://forecast.weather.gov/data/obhistory/PAEI.html,https://forecast.weather.gov/xml/current_obs/PAEI.rss,https://forecast.weather.gov/xml/current_obs/PAEI.xml
PAFB,AK,Fort Wainwright AAF,64.83667,-147.59556,https://forecast.weather.gov/data/obhistory/PAFB.html,https://forecast.weather.gov/xml/current_obs/PAFB.rss,https://forecast.weather.gov/xml/current_obs/PAFB.xml
PAFR,AK,"Ft. Richardson / Bryant U. S. Army Heliport, Ak",61.26667,-149.65,https://forecast.weather.gov/data/obhistory/PAFR.html,https://forecast.weather.gov/xml/current_obs/PAFR.rss,https://forecast.weather.gov/xml/current_obs/PAFR.xml
PAGL,AK,"Golovin, Golovin Airport",64.54333,-163.03944,https://forecast.weather.gov/data/obhistory/PAGL.html,https://forecast.weather.gov/xml/current_obs/PAGL.rss,https://forecast.weather.gov/xml/current_obs/PAGL.xml
PFYU,AK,"Fort Yukon, Fort Yukon Airport",66.56667,-145.26667,https://forecast.weather.gov/data/obhistory/PFYU.html,https://forecast.weather.gov/xml/current_obs/PFYU.rss,https://forecast.weather.gov/xml/current_obs/PFYU.xml
PAHX,AK,Shageluk Airport,62.6923,-159.5692,https://forecast.weather.gov/data/obhistory/PAHX.html,https://forecast.weather.gov/xml/current_obs/PAHX.rss,https://forecast.weather.gov/xml/current_obs/PAHX.xml
PAIK,AK,Kinana / Bob Baker Me,66.98333,-160.43333,https://forecast.weather.gov/data/obhistory/PAIK.html,https://forecast.weather.gov/xml/current_obs/PAIK.rss,https://forecast.weather.gov/xml/current_obs/PAIK.xml
PAIM,AK,"Utopia Creek, Indian Mountain LRRS Airport",66,-153.7,https://forecast.weather.gov/data/obhistory/PAIM.html,https://forecast.weather.gov/xml/current_obs/PAIM.rss,https://forecast.weather.gov/xml/current_obs/PAIM.xml
PAJC,AK,"Chignik, Chignik Airport",56.31139,-158.37333,https://forecast.weather.gov/data/obhistory/PAJC.html,https://forecast.weather.gov/xml/current_obs/PAJC.rss,https://forecast.weather.gov/xml/current_obs/PAJC.xml
PAGA,AK,"Galena, Edward G. Pitka Sr. Airport",64.73333,-156.93333,https://forecast.weather.gov/data/obhistory/PAGA.html,https://forecast.weather.gov/xml/current_obs/PAGA.rss,https://forecast.weather.gov/xml/current_obs/PAGA.xml
PAPO,AK,"Point Hope, Point Hope Airport",68.35,-166.8,https://forecast.weather.gov/data/obhistory/PAPO.html,https://forecast.weather.gov/xml/current_obs/PAPO.rss,https://forecast.weather.gov/xml/current_obs/PAPO.xml
PAUN,AK,Unalakleet,63.88333,-160.8,https://forecast.weather.gov/data/obhistory/PAUN.html,https://forecast.weather.gov/xml/current_obs/PAUN.rss,https://forecast.weather.gov/xml/current_obs/PAUN.xml
PAGM,AK,"Gambell, Gambell Airport",63.76667,-171.73333,https://forecast.weather.gov/data/obhistory/PAGM.html,https://forecast.weather.gov/xml/current_obs/PAGM.rss,https://forecast.weather.gov/xml/current_obs/PAGM.xml
PAKK,AK,"Koyuk, Koyuk Airport",64.93389,-161.15806,https://forecast.weather.gov/data/obhistory/PAKK.html,https://forecast.weather.gov/xml/current_obs/PAKK.rss,https://forecast.weather.gov/xml/current_obs/PAKK.xml
PAKV,AK,"Kaltag, Kaltag Airport",64.31667,-158.73333,https://forecast.weather.gov/data/obhistory/PAKV.html,https://forecast.weather.gov/xml/current_obs/PAKV.rss,https://forecast.weather.gov/xml/current_obs/PAKV.xml
PALP,AK,"Deadhorse, Alpine Airstrip",70.33333,-150.93333,https://forecast.weather.gov/data/obhistory/PALP.html,https://forecast.weather.gov/xml/current_obs/PALP.rss,https://forecast.weather.gov/xml/current_obs/PALP.xml
PALU,AK,"Cape Lisburne, Cape Lisburne LRRS Airport",68.88333,-166.1,https://forecast.weather.gov/data/obhistory/PALU.html,https://forecast.weather.gov/xml/current_obs/PALU.rss,https://forecast.weather.gov/xml/current_obs/PALU.xml
PFTO,AK,Tok Junction Airport,63.32951,-142.95368,https://forecast.weather.gov/data/obhistory/PFTO.html,https://forecast.weather.gov/xml/current_obs/PFTO.rss,https://forecast.weather.gov/xml/current_obs/PFTO.xml
PACD,AK,"Cold Bay, Cold Bay Airport",55.22083,-162.72778,https://forecast.weather.gov/data/obhistory/PACD.html,https://forecast.weather.gov/xml/current_obs/PACD.rss,https://forecast.weather.gov/xml/current_obs/PACD.xml
PAMM,AK,"Metlakatla, Metlakatla Seaplane Base",55.13111,-131.57806,https://forecast.weather.gov/data/obhistory/PAMM.html,https://forecast.weather.gov/xml/current_obs/PAMM.rss,https://forecast.weather.gov/xml/current_obs/PAMM.xml
PAQH,AK,Quinhagak Airport,59.7551,-161.8454,https://forecast.weather.gov/data/obhistory/PAQH.html,https://forecast.weather.gov/xml/current_obs/PAQH.rss,https://forecast.weather.gov/xml/current_obs/PAQH.xml
PAPM,AK,Platinum,59.01667,-161.81667,https://forecast.weather.gov/data/obhistory/PAPM.html,https://forecast.weather.gov/xml/current_obs/PAPM.rss,https://forecast.weather.gov/xml/current_obs/PAPM.xml
PAQT,AK,"Nuiqsut, Nuiqsut Airport",70.21,-151.00556,https://forecast.weather.gov/data/obhistory/PAQT.html,https://forecast.weather.gov/xml/current_obs/PAQT.rss,https://forecast.weather.gov/xml/current_obs/PAQT.xml
PACV,AK,"Cordova, Merle K (Mudhole) Smith Airport",60.49167,-145.47778,https://forecast.weather.gov/data/obhistory/PACV.html,https://forecast.weather.gov/xml/current_obs/PACV.rss,https://forecast.weather.gov/xml/current_obs/PACV.xml
PAGK,AK,"Gulkana, Gulkana Airport",62.15,-145.45,https://forecast.weather.gov/data/obhistory/PAGK.html,https://forecast.weather.gov/xml/current_obs/PAGK.rss,https://forecast.weather.gov/xml/current_obs/PAGK.xml
PASK,AK,Selawik,66.61667,-160,https://forecast.weather.gov/data/obhistory/PASK.html,https://forecast.weather.gov/xml/current_obs/PASK.rss,https://forecast.weather.gov/xml/current_obs/PASK.xml
PASO,AK,"Seldovia, Seldovia Airport",59.45,-151.7,https://forecast.weather.gov/data/obhistory/PASO.html,https://forecast.weather.gov/xml/current_obs/PASO.rss,https://forecast.weather.gov/xml/current_obs/PASO.xml
PAVD,AK,Valdez 2,61.13333,-146.26667,https://forecast.weather.gov/data/obhistory/PAVD.html,https://forecast.weather.gov/xml/current_obs/PAVD.rss,https://forecast.weather.gov/xml/current_obs/PAVD.xml
PASV,AK,Sparrevohn Airways Facilities Sector,61.1,-155.56667,https://forecast.weather.gov/data/obhistory/PASV.html,https://forecast.weather.gov/xml/current_obs/PASV.rss,https://forecast.weather.gov/xml/current_obs/PASV.xml
PASY,AK,"Shemya, Eareckson AFB",52.71667,174.11667,https://forecast.weather.gov/data/obhistory/PASY.html,https://forecast.weather.gov/xml/current_obs/PASY.rss,https://forecast.weather.gov/xml/current_obs/PASY.xml
PATC,AK,Tin City Airways Facilities Sector,65.56667,-167.91667,https://forecast.weather.gov/data/obhistory/PATC.html,https://forecast.weather.gov/xml/current_obs/PATC.rss,https://forecast.weather.gov/xml/current_obs/PATC.xml
PATL,AK,"Takotna, Tatalina LRRS Airport",62.9,-155.98333,https://forecast.weather.gov/data/obhistory/PATL.html,https://forecast.weather.gov/xml/current_obs/PATL.rss,https://forecast.weather.gov/xml/current_obs/PATL.xml
PATO,AK,"Portage, Portage Glacier",60.78333,-148.83333,https://forecast.weather.gov/data/obhistory/PATO.html,https://forecast.weather.gov/xml/current_obs/PATO.rss,https://forecast.weather.gov/xml/current_obs/PATO.xml
PAVL,AK,"Kivalina, Kivalina Airport",67.73333,-164.55,https://forecast.weather.gov/data/obhistory/PAVL.html,https://forecast.weather.gov/xml/current_obs/PAVL.rss,https://forecast.weather.gov/xml/current_obs/PAVL.xml
PAWS,AK,"Wasilla, Wasilla Airport",61.57194,-149.54056,https://forecast.weather.gov/data/obhistory/PAWS.html,https://forecast.weather.gov/xml/current_obs/PAWS.rss,https://forecast.weather.gov/xml/current_obs/PAWS.xml
PFEL,AK,Elim Airport,64.615,-162.2705,https://forecast.weather.gov/data/obhistory/PFEL.html,https://forecast.weather.gov/xml/current_obs/PFEL.rss,https://forecast.weather.gov/xml/current_obs/PFEL.xml
PFKO,AK,Kotlik Airport,63.03058,-163.53264,https://forecast.weather.gov/data/obhistory/PFKO.html,https://forecast.weather.gov/xml/current_obs/PFKO.rss,https://forecast.weather.gov/xml/current_obs/PFKO.xml
PAPR,AK,"Prospect Creek, Prospect Creek Airport",66.81278,-150.64389,https://forecast.weather.gov/data/obhistory/PAPR.html,https://forecast.weather.gov/xml/current_obs/PAPR.rss,https://forecast.weather.gov/xml/current_obs/PAPR.xml
PAMC,AK,"McGrath, McGrath Airport",62.96667,-155.61667,https://forecast.weather.gov/data/obhistory/PAMC.html,https://forecast.weather.gov/xml/current_obs/PAMC.rss,https://forecast.weather.gov/xml/current_obs/PAMC.xml
PARY,AK,Ruby,64.7272,-155.4697,https://forecast.weather.gov/data/obhistory/PARY.html,https://forecast.weather.gov/xml/current_obs/PARY.rss,https://forecast.weather.gov/xml/current_obs/PARY.xml
PAMD,AK,Middleton Island Airport,59.4423,-146.3166,https://forecast.weather.gov/data/obhistory/PAMD.html,https://forecast.weather.gov/xml/current_obs/PAMD.rss,https://forecast.weather.gov/xml/current_obs/PAMD.xml
PAPT,AK,Puntilla,62.1,-152.75,https://forecast.weather.gov/data/obhistory/PAPT.html,https://forecast.weather.gov/xml/current_obs/PAPT.rss,https://forecast.weather.gov/xml/current_obs/PAPT.xml
PAGS,AK,"Gustavus, Gustavus Airport",58.41667,-135.7,https://forecast.weather.gov/data/obhistory/PAGS.html,https://forecast.weather.gov/xml/current_obs/PAGS.rss,https://forecast.weather.gov/xml/current_obs/PAGS.xml
PAWG,AK,Wrangell,56.48333,-132.36667,https://forecast.weather.gov/data/obhistory/PAWG.html,https://forecast.weather.gov/xml/current_obs/PAWG.rss,https://forecast.weather.gov/xml/current_obs/PAWG.xml
PAHL,AK,"Huslia, Huslia Airport",65.6975,-156.35111,https://forecast.weather.gov/data/obhistory/PAHL.html,https://forecast.weather.gov/xml/current_obs/PAHL.rss,https://forecast.weather.gov/xml/current_obs/PAHL.xml
PAWN,AK,"Noatak, Noatak Airport",67.56667,-162.98333,https://forecast.weather.gov/data/obhistory/PAWN.html,https://forecast.weather.gov/xml/current_obs/PAWN.rss,https://forecast.weather.gov/xml/current_obs/PAWN.xml
PAMH,AK,"Minchumina, Minchumina Airport",63.88056,-152.30056,https://forecast.weather.gov/data/obhistory/PAMH.html,https://forecast.weather.gov/xml/current_obs/PAMH.rss,https://forecast.weather.gov/xml/current_obs/PAMH.xml
PAPG,AK,Petersburg,56.8017,-132.9453,https://forecast.weather.gov/data/obhistory/PAPG.html,https://forecast.weather.gov/xml/current_obs/PAPG.rss,https://forecast.weather.gov/xml/current_obs/PAPG.xml
PAYA,AK,Yakutat,59.51667,-139.66667,https://forecast.weather.gov/data/obhistory/PAYA.html,https://forecast.weather.gov/xml/current_obs/PAYA.rss,https://forecast.weather.gov/xml/current_obs/PAYA.xml
PACX,AK,Coldfoot Airport,67.25217,-150.20391,https://forecast.weather.gov/data/obhistory/PACX.html,https://forecast.weather.gov/xml/current_obs/PACX.rss,https://forecast.weather.gov/xml/current_obs/PACX.xml
PADM,AK,Marshall,61.8643,-162.0261,https://forecast.weather.gov/data/obhistory/PADM.html,https://forecast.weather.gov/xml/current_obs/PADM.rss,https://forecast.weather.gov/xml/current_obs/PADM.xml
PAFS,AK,Nikolai,63.019,-154.358,https://forecast.weather.gov/data/obhistory/PAFS.html,https://forecast.weather.gov/xml/current_obs/PAFS.rss,https://forecast.weather.gov/xml/current_obs/PAFS.xml
PAHC,AK,Holy Cross,62.1873,-159.77657,https://forecast.weather.gov/data/obhistory/PAHC.html,https://forecast.weather.gov/xml/current_obs/PAHC.rss,https://forecast.weather.gov/xml/current_obs/PAHC.xml
PAIG,AK,Igiugig,59.32395,-155.90235,https://forecast.weather.gov/data/obhistory/PAIG.html,https://forecast.weather.gov/xml/current_obs/PAIG.rss,https://forecast.weather.gov/xml/current_obs/PAIG.xml
PADK,AK,"Adak Island, Adak Airport",51.87778,-176.64583,https://forecast.weather.gov/data/obhistory/PADK.html,https://forecast.weather.gov/xml/current_obs/PADK.rss,https://forecast.weather.gov/xml/current_obs/PADK.xml
PAJZ,AK,Koliganek,59.727,-157.259,https://forecast.weather.gov/data/obhistory/PAJZ.html,https://forecast.weather.gov/xml/current_obs/PAJZ.rss,https://forecast.weather.gov/xml/current_obs/PAJZ.xml
PALG,AK,Kalskag,61.5364,-160.3414,https://forecast.weather.gov/data/obhistory/PALG.html,https://forecast.weather.gov/xml/current_obs/PALG.rss,https://forecast.weather.gov/xml/current_obs/PALG.xml
PADQ,AK,"Kodiak, Kodiak Airport",57.75,-152.5,https://forecast.weather.gov/data/obhistory/PADQ.html,https://forecast.weather.gov/xml/current_obs/PADQ.rss,https://forecast.weather.gov/xml/current_obs/PADQ.xml
PAMB,AK,Manokotak,58.9902,-159.0499,https://forecast.weather.gov/data/obhistory/PAMB.html,https://forecast.weather.gov/xml/current_obs/PAMB.rss,https://forecast.weather.gov/xml/current_obs/PAMB.xml
PAMK,AK,St Michael Airport,63.49006,-162.11039,https://forecast.weather.gov/data/obhistory/PAMK.html,https://forecast.weather.gov/xml/current_obs/PAMK.rss,https://forecast.weather.gov/xml/current_obs/PAMK.xml
PANW,AK,New Stuyahok,59.45,-157.328,https://forecast.weather.gov/data/obhistory/PANW.html,https://forecast.weather.gov/xml/current_obs/PANW.rss,https://forecast.weather.gov/xml/current_obs/PANW.xml
PAOO,AK,Toksook Bay,60.53352,-165.1143,https://forecast.weather.gov/data/obhistory/PAOO.html,https://forecast.weather.gov/xml/current_obs/PAOO.rss,https://forecast.weather.gov/xml/current_obs/PAOO.xml
PAOU,AK,Nelson Lagoon,56.008,-161.16,https://forecast.weather.gov/data/obhistory/PAOU.html,https://forecast.weather.gov/xml/current_obs/PAOU.rss,https://forecast.weather.gov/xml/current_obs/PAOU.xml
PAPN,AK,Pilot Point Airport,57.58,-157.572,https://forecast.weather.gov/data/obhistory/PAPN.html,https://forecast.weather.gov/xml/current_obs/PAPN.rss,https://forecast.weather.gov/xml/current_obs/PAPN.xml
PARS,AK,Russian Mission,61.775,-161.3194,https://forecast.weather.gov/data/obhistory/PARS.html,https://forecast.weather.gov/xml/current_obs/PARS.rss,https://forecast.weather.gov/xml/current_obs/PARS.xml
PANU,AK,Nulato Airport,64.72933,-158.07422,https://forecast.weather.gov/data/obhistory/PANU.html,https://forecast.weather.gov/xml/current_obs/PANU.rss,https://forecast.weather.gov/xml/current_obs/PANU.xml
PAFM,AK,"Ambler, Ambler Airport",67.1,-157.85,https://forecast.weather.gov/data/obhistory/PAFM.html,https://forecast.weather.gov/xml/current_obs/PAFM.rss,https://forecast.weather.gov/xml/current_obs/PAFM.xml
PATQ,AK,Atqasuk,70.4673,-157.4357,https://forecast.weather.gov/data/obhistory/PATQ.html,https://forecast.weather.gov/xml/current_obs/PATQ.rss,https://forecast.weather.gov/xml/current_obs/PATQ.xml
PAHN,AK,Haines - Haines Airport,59.2429,-135.5114,https://forecast.weather.gov/data/obhistory/PAHN.html,https://forecast.weather.gov/xml/current_obs/PAHN.rss,https://forecast.weather.gov/xml/current_obs/PAHN.xml
PAVC,AK,King Cove,55.116,-162.266,https://forecast.weather.gov/data/obhistory/PAVC.html,https://forecast.weather.gov/xml/current_obs/PAVC.rss,https://forecast.weather.gov/xml/current_obs/PAVC.xml
PAHO,AK,"Homer, Homer Airport",59.65,-151.48333,https://forecast.weather.gov/data/obhistory/PAHO.html,https://forecast.weather.gov/xml/current_obs/PAHO.rss,https://forecast.weather.gov/xml/current_obs/PAHO.xml
PAMO,AK,Mountain Village,62.0953,-163.6819,https://forecast.weather.gov/data/obhistory/PAMO.html,https://forecast.weather.gov/xml/current_obs/PAMO.rss,https://forecast.weather.gov/xml/current_obs/PAMO.xml
PFSH,AK,Shaktoolik Airport,64.3711,-161.224,https://forecast.weather.gov/data/obhistory/PFSH.html,https://forecast.weather.gov/xml/current_obs/PFSH.rss,https://forecast.weather.gov/xml/current_obs/PFSH.xml
PAHP,AK,"Hooper Bay, Hooper Bay Airport",61.51667,-166.13333,https://forecast.weather.gov/data/obhistory/PAHP.html,https://forecast.weather.gov/xml/current_obs/PAHP.rss,https://forecast.weather.gov/xml/current_obs/PAHP.xml
PFNO,AK,Noorvik,66.8175,-161.0223,https://forecast.weather.gov/data/obhistory/PFNO.html,https://forecast.weather.gov/xml/current_obs/PFNO.rss,https://forecast.weather.gov/xml/current_obs/PFNO.xml
PAGH,AK,Shungnak Airport,66.8881,-157.1624,https://forecast.weather.gov/data/obhistory/PAGH.html,https://forecast.weather.gov/xml/current_obs/PAGH.rss,https://forecast.weather.gov/xml/current_obs/PAGH.xml
PADL,AK,"Dillingham, Dillingham Airport",59.05,-158.51667,https://forecast.weather.gov/data/obhistory/PADL.html,https://forecast.weather.gov/xml/current_obs/PADL.rss,https://forecast.weather.gov/xml/current_obs/PADL.xml
PAMR,AK,"Anchorage, Merrill Field Airport",61.21667,-149.85,https://forecast.weather.gov/data/obhistory/PAMR.html,https://forecast.weather.gov/xml/current_obs/PAMR.rss,https://forecast.weather.gov/xml/current_obs/PAMR.xml
PAVA,AK,Chevak Airport,61.5408,-165.6009,https://forecast.weather.gov/data/obhistory/PAVA.html,https://forecast.weather.gov/xml/current_obs/PAVA.rss,https://forecast.weather.gov/xml/current_obs/PAVA.xml
PAKN,AK,"King Salmon, King Salmon Airport",58.67667,-156.64917,https://forecast.weather.gov/data/obhistory/PAKN.html,https://forecast.weather.gov/xml/current_obs/PAKN.rss,https://forecast.weather.gov/xml/current_obs/PAKN.xml
PAKP,AK,"Anaktuvuk Pass, Anaktuvuk Pass Airport",68.13361,-151.74333,https://forecast.weather.gov/data/obhistory/PAKP.html,https://forecast.weather.gov/xml/current_obs/PAKP.rss,https://forecast.weather.gov/xml/current_obs/PAKP.xml
PAKW,AK,Klawock - Klawock Airport,55.5839,-133.067,https://forecast.weather.gov/data/obhistory/PAKW.html,https://forecast.weather.gov/xml/current_obs/PAKW.rss,https://forecast.weather.gov/xml/current_obs/PAKW.xml
PASC,AK,"Deadhorse, Deadhorse Airport",70.2,-148.46667,https://forecast.weather.gov/data/obhistory/PASC.html,https://forecast.weather.gov/xml/current_obs/PASC.rss,https://forecast.weather.gov/xml/current_obs/PASC.xml
PAAD,AK,Point Thomson Airstrip,70.136,-146.2901,https://forecast.weather.gov/data/obhistory/PAAD.html,https://forecast.weather.gov/xml/current_obs/PAAD.rss,https://forecast.weather.gov/xml/current_obs/PAAD.xml
PANC,AK,"Anchorage, Ted Stevens Anchorage International Airport",61.17444,-149.99611,https://forecast.weather.gov/data/obhistory/PANC.html,https://forecast.weather.gov/xml/current_obs/PANC.rss,https://forecast.weather.gov/xml/current_obs/PANC.xml
PASD,AK,Sand Point,55.31667,-160.51667,https://forecast.weather.gov/data/obhistory/PASD.html,https://forecast.weather.gov/xml/current_obs/PASD.rss,https://forecast.weather.gov/xml/current_obs/PASD.xml
PAHY,AK,Hydaburg - Hydaburg Seaplane Base,55.2,-132.83333,https://forecast.weather.gov/data/obhistory/PAHY.html,https://forecast.weather.gov/xml/current_obs/PAHY.rss,https://forecast.weather.gov/xml/current_obs/PAHY.xml
PFZK,AK,Akiachak Airport,60.91381,-161.49333,https://forecast.weather.gov/data/obhistory/PFZK.html,https://forecast.weather.gov/xml/current_obs/PFZK.rss,https://forecast.weather.gov/xml/current_obs/PFZK.xml
PANI,AK,"Aniak, Aniak Airport",61.58139,-159.54278,https://forecast.weather.gov/data/obhistory/PANI.html,https://forecast.weather.gov/xml/current_obs/PANI.rss,https://forecast.weather.gov/xml/current_obs/PANI.xml
PANV,AK,"Anvik, Anvik Airport",62.64833,-160.18972,https://forecast.weather.gov/data/obhistory/PANV.html,https://forecast.weather.gov/xml/current_obs/PANV.rss,https://forecast.weather.gov/xml/current_obs/PANV.xml
PADU,AK,"Unalaska, Unalaska Airport",53.9,-166.53333,https://forecast.weather.gov/data/obhistory/PADU.html,https://forecast.weather.gov/xml/current_obs/PADU.rss,https://forecast.weather.gov/xml/current_obs/PADU.xml
PAPB,AK,"St. George, St. George Airport",56.57861,-169.66139,https://forecast.weather.gov/data/obhistory/PAPB.html,https://forecast.weather.gov/xml/current_obs/PAPB.rss,https://forecast.weather.gov/xml/current_obs/PAPB.xml
PFKT,AK,Brevig Mission Airport,65.3313,-166.4657,https://forecast.weather.gov/data/obhistory/PFKT.html,https://forecast.weather.gov/xml/current_obs/PFKT.rss,https://forecast.weather.gov/xml/current_obs/PFKT.xml
PAGY,AK,Skagway,59.4544,-135.3263,https://forecast.weather.gov/data/obhistory/PAGY.html,https://forecast.weather.gov/xml/current_obs/PAGY.rss,https://forecast.weather.gov/xml/current_obs/PAGY.xml
PASH,AK,"Shishmaref, Shishmaref Airport",66.26667,-166.08333,https://forecast.weather.gov/data/obhistory/PASH.html,https://forecast.weather.gov/xml/current_obs/PASH.rss,https://forecast.weather.gov/xml/current_obs/PASH.xml
PAEG,AK,"Eagle, Eagle Airport",64.77639,-141.15083,https://forecast.weather.gov/data/obhistory/PAEG.html,https://forecast.weather.gov/xml/current_obs/PAEG.rss,https://forecast.weather.gov/xml/current_obs/PAEG.xml
PARC,AK,"Arctic Village, Arctic Village Airport",68.11444,-145.57917,https://forecast.weather.gov/data/obhistory/PARC.html,https://forecast.weather.gov/xml/current_obs/PARC.rss,https://forecast.weather.gov/xml/current_obs/PARC.xml
PAMY,AK,"Mekoryuk, Mekoryuk Airport",60.36667,-166.26667,https://forecast.weather.gov/data/obhistory/PAMY.html,https://forecast.weather.gov/xml/current_obs/PAMY.rss,https://forecast.weather.gov/xml/current_obs/PAMY.xml
PASI,AK,Sitka - Sitka Airport,57.048,-135.3647,https://forecast.weather.gov/data/obhistory/PASI.html,https://forecast.weather.gov/xml/current_obs/PASI.rss,https://forecast.weather.gov/xml/current_obs/PASI.xml
PAIL,AK,"Iliamna, Iliamna Airport",59.75,-154.9,https://forecast.weather.gov/data/obhistory/PAIL.html,https://forecast.weather.gov/xml/current_obs/PAIL.rss,https://forecast.weather.gov/xml/current_obs/PAIL.xml
PASL,AK,Sleetmute,61.69735,-157.16712,https://forecast.weather.gov/data/obhistory/PASL.html,https://forecast.weather.gov/xml/current_obs/PASL.rss,https://forecast.weather.gov/xml/current_obs/PASL.xml
PASN,AK,"St. Paul Island, St. Paul Island Airport",57.16667,-170.21667,https://forecast.weather.gov/data/obhistory/PASN.html,https://forecast.weather.gov/xml/current_obs/PASN.rss,https://forecast.weather.gov/xml/current_obs/PASN.xml
PAEN,AK,"Kenai, Kenai Municipal Airport",60.57306,-151.245,https://forecast.weather.gov/data/obhistory/PAEN.html,https://forecast.weather.gov/xml/current_obs/PAEN.rss,https://forecast.weather.gov/xml/current_obs/PAEN.xml
PAIN,AK,"McKinley Park, McKinley National Park Airport",63.73333,-148.91667,https://forecast.weather.gov/data/obhistory/PAIN.html,https://forecast.weather.gov/xml/current_obs/PAIN.rss,https://forecast.weather.gov/xml/current_obs/PAIN.xml
PANN,AK,Nenana Municipal Airport,64.54796,-149.08398,https://forecast.weather.gov/data/obhistory/PANN.html,https://forecast.weather.gov/xml/current_obs/PANN.rss,https://forecast.weather.gov/xml/current_obs/PANN.xml
PAKX,AK,WILDER NATWICK,60.2,-154.3166,https://forecast.weather.gov/data/obhistory/PAKX.html,https://forecast.weather.gov/xml/current_obs/PAKX.rss,https://forecast.weather.gov/xml/current_obs/PAKX.xml
PAIW,AK,Wales,65.6226,-168.0949,https://forecast.weather.gov/data/obhistory/PAIW.html,https://forecast.weather.gov/xml/current_obs/PAIW.rss,https://forecast.weather.gov/xml/current_obs/PAIW.xml
PAKH,AK,Akhiok,56.9387,-154.1826,https://forecast.weather.gov/data/obhistory/PAKH.html,https://forecast.weather.gov/xml/current_obs/PAKH.rss,https://forecast.weather.gov/xml/current_obs/PAKH.xml
PATE,AK,Teller,65.2404,-166.3393,https://forecast.weather.gov/data/obhistory/PATE.html,https://forecast.weather.gov/xml/current_obs/PATE.rss,https://forecast.weather.gov/xml/current_obs/PATE.xml
PAZK,AK,"Eureka, Skelton Airport",61.93333,-147.16667,https://forecast.weather.gov/data/obhistory/PAZK.html,https://forecast.weather.gov/xml/current_obs/PAZK.rss,https://forecast.weather.gov/xml/current_obs/PAZK.xml
PAWM,AK,White Mountain Airport,64.6892,-163.4127,https://forecast.weather.gov/data/obhistory/PAWM.html,https://forecast.weather.gov/xml/current_obs/PAWM.rss,https://forecast.weather.gov/xml/current_obs/PAWM.xml
PADG,AK,Red Dog,68.0321,-162.8992,https://forecast.weather.gov/data/obhistory/PADG.html,https://forecast.weather.gov/xml/current_obs/PADG.rss,https://forecast.weather.gov/xml/current_obs/PADG.xml
KSXS,AL,SCHELL AHP,31.35,-85.85,https://forecast.weather.gov/data/obhistory/KSXS.html,https://forecast.weather.gov/xml/current_obs/KSXS.rss,https://forecast.weather.gov/xml/current_obs/KSXS.xml
KBFM,AL,"Mobile, Mobile Downtown Airport",30.61389,-88.06333,https://forecast.weather.gov/data/obhistory/KBFM.html,https://forecast.weather.gov/xml/current_obs/KBFM.rss,https://forecast.weather.gov/xml/current_obs/KBFM.xml
KSCD,AL,Merkel Field Sylacauga Municipal Airport,33.1718,-86.3055,https://forecast.weather.gov/data/obhistory/KSCD.html,https://forecast.weather.gov/xml/current_obs/KSCD.rss,https://forecast.weather.gov/xml/current_obs/KSCD.xml
KBHM,AL,"Birmingham, Birmingham International Airport",33.56556,-86.745,https://forecast.weather.gov/data/obhistory/KBHM.html,https://forecast.weather.gov/xml/current_obs/KBHM.rss,https://forecast.weather.gov/xml/current_obs/KBHM.xml
KTCL,AL,Tuscaloosa Regional Airport,33.21215,-87.61554,https://forecast.weather.gov/data/obhistory/KTCL.html,https://forecast.weather.gov/xml/current_obs/KTCL.rss,https://forecast.weather.gov/xml/current_obs/KTCL.xml
K1R8,AL,Bay Minette Municipal Airport,30.87033,-87.81933,https://forecast.weather.gov/data/obhistory/K1R8.html,https://forecast.weather.gov/xml/current_obs/K1R8.rss,https://forecast.weather.gov/xml/current_obs/K1R8.xml
KTOI,AL,"Troy, Troy Municipal Airport",31.86056,-86.01222,https://forecast.weather.gov/data/obhistory/KTOI.html,https://forecast.weather.gov/xml/current_obs/KTOI.rss,https://forecast.weather.gov/xml/current_obs/KTOI.xml
KOZR,AL,Cairns Army Air Field / Ozark,31.27672,-85.71099,https://forecast.weather.gov/data/obhistory/KOZR.html,https://forecast.weather.gov/xml/current_obs/KOZR.rss,https://forecast.weather.gov/xml/current_obs/KOZR.xml
K0J4,AL,"Florala, Florala Municipal Airport",31.0425,-86.31167,https://forecast.weather.gov/data/obhistory/K0J4.html,https://forecast.weather.gov/xml/current_obs/K0J4.rss,https://forecast.weather.gov/xml/current_obs/K0J4.xml
KLOR,AL,"Fort Rucker, Lowe Army Heliport",31.35889,-85.74833,https://forecast.weather.gov/data/obhistory/KLOR.html,https://forecast.weather.gov/xml/current_obs/KLOR.rss,https://forecast.weather.gov/xml/current_obs/KLOR.xml
KGAD,AL,"Gadsden, Gadsden Municipal Airport",33.96667,-86.08333,https://forecast.weather.gov/data/obhistory/KGAD.html,https://forecast.weather.gov/xml/current_obs/KGAD.rss,https://forecast.weather.gov/xml/current_obs/KGAD.xml
KDYA,AL,Demopolis Municipal Airport,32.4638,-87.9541,https://forecast.weather.gov/data/obhistory/KDYA.html,https://forecast.weather.gov/xml/current_obs/KDYA.rss,https://forecast.weather.gov/xml/current_obs/KDYA.xml
KBFZ,AL,Albertville Regional Airport-Thomas J Brumlik Field,34.22911,-86.25575,https://forecast.weather.gov/data/obhistory/KBFZ.html,https://forecast.weather.gov/xml/current_obs/KBFZ.rss,https://forecast.weather.gov/xml/current_obs/KBFZ.xml
KASN,AL,Talladega Municipal Airport,33.5695,-86.0512,https://forecast.weather.gov/data/obhistory/KASN.html,https://forecast.weather.gov/xml/current_obs/KASN.rss,https://forecast.weather.gov/xml/current_obs/KASN.xml
KEDN,AL,Enterprise Municipal Airport,31.2982,-85.9048,https://forecast.weather.gov/data/obhistory/KEDN.html,https://forecast.weather.gov/xml/current_obs/KEDN.rss,https://forecast.weather.gov/xml/current_obs/KEDN.xml
K8A1,AL,Guntersville Municipal Airport,34.40115,-86.26722,https://forecast.weather.gov/data/obhistory/K8A1.html,https://forecast.weather.gov/xml/current_obs/K8A1.rss,https://forecast.weather.gov/xml/current_obs/K8A1.xml
KCMD,AL,Cullman Regional Folsom Field,34.2687,-86.858,https://forecast.weather.gov/data/obhistory/KCMD.html,https://forecast.weather.gov/xml/current_obs/KCMD.rss,https://forecast.weather.gov/xml/current_obs/KCMD.xml
KMDQ,AL,"Huntsville, Madison County Executive Airport",34.86139,-86.55722,https://forecast.weather.gov/data/obhistory/KMDQ.html,https://forecast.weather.gov/xml/current_obs/KMDQ.rss,https://forecast.weather.gov/xml/current_obs/KMDQ.xml
KHUA,AL,Redstone Airfield,34.6786,-86.6847,https://forecast.weather.gov/data/obhistory/KHUA.html,https://forecast.weather.gov/xml/current_obs/KHUA.rss,https://forecast.weather.gov/xml/current_obs/KHUA.xml
KJKA,AL,Jack Edwards Airport,30.2896,-87.6718,https://forecast.weather.gov/data/obhistory/KJKA.html,https://forecast.weather.gov/xml/current_obs/KJKA.rss,https://forecast.weather.gov/xml/current_obs/KJKA.xml
KPRN,AL,Mac Crenshaw Memorial Airport,31.8457,-86.6107,https://forecast.weather.gov/data/obhistory/KPRN.html,https://forecast.weather.gov/xml/current_obs/KPRN.rss,https://forecast.weather.gov/xml/current_obs/KPRN.xml
K79J,AL,"Andalusia, Andalusia-Opp Municipal Airport",31.3,-86.38333,https://forecast.weather.gov/data/obhistory/K79J.html,https://forecast.weather.gov/xml/current_obs/K79J.rss,https://forecast.weather.gov/xml/current_obs/K79J.xml
KGZH,AL,"Evergreen, Middleton Field",31.41889,-87.04806,https://forecast.weather.gov/data/obhistory/KGZH.html,https://forecast.weather.gov/xml/current_obs/KGZH.rss,https://forecast.weather.gov/xml/current_obs/KGZH.xml
KMGM,AL,"Montgomery, Dannelly Field",32.30028,-86.40611,https://forecast.weather.gov/data/obhistory/KMGM.html,https://forecast.weather.gov/xml/current_obs/KMGM.rss,https://forecast.weather.gov/xml/current_obs/KMGM.xml
K4A9,AL,"Fort Payne, Isbell Field Airport",34.47361,-85.72139,https://forecast.weather.gov/data/obhistory/K4A9.html,https://forecast.weather.gov/xml/current_obs/K4A9.rss,https://forecast.weather.gov/xml/current_obs/K4A9.xml
KCQF,AL,Sonny Callahan Airport,30.461,-87.877,https://forecast.weather.gov/data/obhistory/KCQF.html,https://forecast.weather.gov/xml/current_obs/KCQF.rss,https://forecast.weather.gov/xml/current_obs/KCQF.xml
KHEY,AL,Hanchey AHP / Ozark,31.35,-85.66667,https://forecast.weather.gov/data/obhistory/KHEY.html,https://forecast.weather.gov/xml/current_obs/KHEY.rss,https://forecast.weather.gov/xml/current_obs/KHEY.xml
KNBJ,AL,"Barin, Barin Field, Naval Air Facility",30.39111,-87.6325,https://forecast.weather.gov/data/obhistory/KNBJ.html,https://forecast.weather.gov/xml/current_obs/KNBJ.rss,https://forecast.weather.gov/xml/current_obs/KNBJ.xml
KEUF,AL,Eufaula Municipal Airport,31.951,-85.129,https://forecast.weather.gov/data/obhistory/KEUF.html,https://forecast.weather.gov/xml/current_obs/KEUF.rss,https://forecast.weather.gov/xml/current_obs/KEUF.xml
K4A6,AL,Scottsboro Municipal Airport,34.68871,-86.00593,https://forecast.weather.gov/data/obhistory/K4A6.html,https://forecast.weather.gov/xml/current_obs/K4A6.rss,https://forecast.weather.gov/xml/current_obs/K4A6.xml
KJFX,AL,Jasper Walker County Airport & Bevill Field,33.902,-87.31417,https://forecast.weather.gov/data/obhistory/KJFX.html,https://forecast.weather.gov/xml/current_obs/KJFX.rss,https://forecast.weather.gov/xml/current_obs/KJFX.xml
KDCU,AL,"Decatur, Pryor Field",34.65806,-86.94333,https://forecast.weather.gov/data/obhistory/KDCU.html,https://forecast.weather.gov/xml/current_obs/KDCU.rss,https://forecast.weather.gov/xml/current_obs/KDCU.xml
KMOB,AL,"Mobile, Mobile Regional Airport",30.68833,-88.24556,https://forecast.weather.gov/data/obhistory/KMOB.html,https://forecast.weather.gov/xml/current_obs/KMOB.rss,https://forecast.weather.gov/xml/current_obs/KMOB.xml
KDHN,AL,"Dothan, Dothan Regional Airport",31.32139,-85.44972,https://forecast.weather.gov/data/obhistory/KDHN.html,https://forecast.weather.gov/xml/current_obs/KDHN.rss,https://forecast.weather.gov/xml/current_obs/KDHN.xml
KHSV,AL,"Huntsville, Huntsville International / Jones Field",34.64361,-86.78556,https://forecast.weather.gov/data/obhistory/KHSV.html,https://forecast.weather.gov/xml/current_obs/KHSV.rss,https://forecast.weather.gov/xml/current_obs/KHSV.xml
KMSL,AL,"Muscle Shoals, North West Alabama Regional Airport",34.74389,-87.59944,https://forecast.weather.gov/data/obhistory/KMSL.html,https://forecast.weather.gov/xml/current_obs/KMSL.rss,https://forecast.weather.gov/xml/current_obs/KMSL.xml
KANB,AL,Anniston Metro Airport,33.59045,-85.84789,https://forecast.weather.gov/data/obhistory/KANB.html,https://forecast.weather.gov/xml/current_obs/KANB.rss,https://forecast.weather.gov/xml/current_obs/KANB.xml
K1M4,AL,"Haleyville, Posey Field Airport",34.28028,-87.60028,https://forecast.weather.gov/data/obhistory/K1M4.html,https://forecast.weather.gov/xml/current_obs/K1M4.rss,https://forecast.weather.gov/xml/current_obs/K1M4.xml
KEKY,AL,Bessemer Airport,33.3126,-86.9263,https://forecast.weather.gov/data/obhistory/KEKY.html,https://forecast.weather.gov/xml/current_obs/KEKY.rss,https://forecast.weather.gov/xml/current_obs/KEKY.xml
KMXF,AL,Maxwell Air Force Base / Montgomery,32.38333,-86.36667,https://forecast.weather.gov/data/obhistory/KMXF.html,https://forecast.weather.gov/xml/current_obs/KMXF.rss,https://forecast.weather.gov/xml/current_obs/KMXF.xml
KEET,AL,"Alabaster, Shelby County Airport",33.17833,-86.78167,https://forecast.weather.gov/data/obhistory/KEET.html,https://forecast.weather.gov/xml/current_obs/KEET.rss,https://forecast.weather.gov/xml/current_obs/KEET.xml
KSEM,AL,Craig Field / Selma,32.35,-86.98333,https://forecast.weather.gov/data/obhistory/KSEM.html,https://forecast.weather.gov/xml/current_obs/KSEM.rss,https://forecast.weather.gov/xml/current_obs/KSEM.xml
KAUO,AL,Auburn-Opelika Airport,32.61667,-85.43333,https://forecast.weather.gov/data/obhistory/KAUO.html,https://forecast.weather.gov/xml/current_obs/KAUO.rss,https://forecast.weather.gov/xml/current_obs/KAUO.xml
KALX,AL,"Alexander City, Thomas C Russell Field Airport",32.91472,-85.96278,https://forecast.weather.gov/data/obhistory/KALX.html,https://forecast.weather.gov/xml/current_obs/KALX.rss,https://forecast.weather.gov/xml/current_obs/KALX.xml
KPLR,AL,St Clair County Airport,33.5588,-86.2491,https://forecast.weather.gov/data/obhistory/KPLR.html,https://forecast.weather.gov/xml/current_obs/KPLR.rss,https://forecast.weather.gov/xml/current_obs/KPLR.xml
K1A9,AL,Prattville - Grouby Field,32.4387,-86.5127,https://forecast.weather.gov/data/obhistory/K1A9.html,https://forecast.weather.gov/xml/current_obs/K1A9.rss,https://forecast.weather.gov/xml/current_obs/K1A9.xml
KJBR,AR,"Jonesboro, Jonesboro Municipal Airport",35.83722,-90.64306,https://forecast.weather.gov/data/obhistory/KJBR.html,https://forecast.weather.gov/xml/current_obs/KJBR.rss,https://forecast.weather.gov/xml/current_obs/KJBR.xml
KSUZ,AR,Saline County Regional Airport,34.59039,-92.47944,https://forecast.weather.gov/data/obhistory/KSUZ.html,https://forecast.weather.gov/xml/current_obs/KSUZ.rss,https://forecast.weather.gov/xml/current_obs/KSUZ.xml
KCXW,AR,Conway - Cantrell Field,35.0199,-92.5551,https://forecast.weather.gov/data/obhistory/KCXW.html,https://forecast.weather.gov/xml/current_obs/KCXW.rss,https://forecast.weather.gov/xml/current_obs/KCXW.xml
KFSM,AR,Fort Smith Regional Airport,35.3335,-94.36524,https://forecast.weather.gov/data/obhistory/KFSM.html,https://forecast.weather.gov/xml/current_obs/KFSM.rss,https://forecast.weather.gov/xml/current_obs/KFSM.xml
KLIT,AR,"Little Rock, Adams Field",34.72667,-92.23611,https://forecast.weather.gov/data/obhistory/KLIT.html,https://forecast.weather.gov/xml/current_obs/KLIT.rss,https://forecast.weather.gov/xml/current_obs/KLIT.xml
KPBF,AR,"Pine Bluff, Grider Field Airport",34.175,-91.93472,https://forecast.weather.gov/data/obhistory/KPBF.html,https://forecast.weather.gov/xml/current_obs/KPBF.rss,https://forecast.weather.gov/xml/current_obs/KPBF.xml
KTXK,AR,"Texarkana, Texarkana Regional-Webb Field",33.45611,-93.9875,https://forecast.weather.gov/data/obhistory/KTXK.html,https://forecast.weather.gov/xml/current_obs/KTXK.rss,https://forecast.weather.gov/xml/current_obs/KTXK.xml
KLLQ,AR,"Monticello, Monticello Municipal Airport/Ellis Field",33.63833,-91.75111,https://forecast.weather.gov/data/obhistory/KLLQ.html,https://forecast.weather.gov/xml/current_obs/KLLQ.rss,https://forecast.weather.gov/xml/current_obs/KLLQ.xml
KBVX,AR,"Batesville, Batesville Regional Airport",35.73333,-91.65,https://forecast.weather.gov/data/obhistory/KBVX.html,https://forecast.weather.gov/xml/current_obs/KBVX.rss,https://forecast.weather.gov/xml/current_obs/KBVX.xml
KFYV,AR,"Fayetteville, Drake Field",36.01028,-94.16778,https://forecast.weather.gov/data/obhistory/KFYV.html,https://forecast.weather.gov/xml/current_obs/KFYV.rss,https://forecast.weather.gov/xml/current_obs/KFYV.xml
KLRF,AR,Little Rock Air Force Base,34.91667,-92.15,https://forecast.weather.gov/data/obhistory/KLRF.html,https://forecast.weather.gov/xml/current_obs/KLRF.rss,https://forecast.weather.gov/xml/current_obs/KLRF.xml
KAGO,AR,Ralph C Weiser Field Airport,33.22747,-93.217,https://forecast.weather.gov/data/obhistory/KAGO.html,https://forecast.weather.gov/xml/current_obs/KAGO.rss,https://forecast.weather.gov/xml/current_obs/KAGO.xml
KCDH,AR,Camden / Harrell Field,33.61667,-92.76667,https://forecast.weather.gov/data/obhistory/KCDH.html,https://forecast.weather.gov/xml/current_obs/KCDH.rss,https://forecast.weather.gov/xml/current_obs/KCDH.xml
KVBT,AR,"Bentonville, Bentonville Municipal Airport/Louise M Thaden Field",36.35,-94.21667,https://forecast.weather.gov/data/obhistory/KVBT.html,https://forecast.weather.gov/xml/current_obs/KVBT.rss,https://forecast.weather.gov/xml/current_obs/KVBT.xml
KDRP,AR,Delta Regional Airport,35.12005,-90.8265,https://forecast.weather.gov/data/obhistory/KDRP.html,https://forecast.weather.gov/xml/current_obs/KDRP.rss,https://forecast.weather.gov/xml/current_obs/KDRP.xml
K4M3,AR,Carlisle Municipal Airport,34.80822,-91.71211,https://forecast.weather.gov/data/obhistory/K4M3.html,https://forecast.weather.gov/xml/current_obs/K4M3.rss,https://forecast.weather.gov/xml/current_obs/K4M3.xml
KORK,AR,North Little Rock Municipal Airport,34.83314,-92.25414,https://forecast.weather.gov/data/obhistory/KORK.html,https://forecast.weather.gov/xml/current_obs/KORK.rss,https://forecast.weather.gov/xml/current_obs/KORK.xml
KCCA,AR,Clinton Memorial Airfield,35.598,-92.4516,https://forecast.weather.gov/data/obhistory/KCCA.html,https://forecast.weather.gov/xml/current_obs/KCCA.rss,https://forecast.weather.gov/xml/current_obs/KCCA.xml
KXNA,AR,Northwest Arkansas Regional Airport,36.28977,-94.31145,https://forecast.weather.gov/data/obhistory/KXNA.html,https://forecast.weather.gov/xml/current_obs/KXNA.rss,https://forecast.weather.gov/xml/current_obs/KXNA.xml
KADF,AR,Dexter B Florence Memorial Field,34.0998,-93.0661,https://forecast.weather.gov/data/obhistory/KADF.html,https://forecast.weather.gov/xml/current_obs/KADF.rss,https://forecast.weather.gov/xml/current_obs/KADF.xml
KHKA,AR,"Blytheville, Blytheville Municipal Airport",35.93889,-89.8325,https://forecast.weather.gov/data/obhistory/KHKA.html,https://forecast.weather.gov/xml/current_obs/KHKA.rss,https://forecast.weather.gov/xml/current_obs/KHKA.xml
KROG,AR,Rogers - Rogers Executive Airport - Carter Field,36.36667,-94.1,https://forecast.weather.gov/data/obhistory/KROG.html,https://forecast.weather.gov/xml/current_obs/KROG.rss,https://forecast.weather.gov/xml/current_obs/KROG.xml
K4M9,AR,Corning Municipal Airport,36.404,-90.648,https://forecast.weather.gov/data/obhistory/K4M9.html,https://forecast.weather.gov/xml/current_obs/K4M9.rss,https://forecast.weather.gov/xml/current_obs/K4M9.xml
KDEQ,AR,"De Queen, J Lynn Helms Sevier County Airport",34.04694,-94.39944,https://forecast.weather.gov/data/obhistory/KDEQ.html,https://forecast.weather.gov/xml/current_obs/KDEQ.rss,https://forecast.weather.gov/xml/current_obs/KDEQ.xml
KHOT,AR,"Hot Springs, Memorial Field Airport",34.47806,-93.09611,https://forecast.weather.gov/data/obhistory/KHOT.html,https://forecast.weather.gov/xml/current_obs/KHOT.rss,https://forecast.weather.gov/xml/current_obs/KHOT.xml
KHRO,AR,"Harrison, Boone County Airport",36.26167,-93.15472,https://forecast.weather.gov/data/obhistory/KHRO.html,https://forecast.weather.gov/xml/current_obs/KHRO.rss,https://forecast.weather.gov/xml/current_obs/KHRO.xml
KMEZ,AR,"Mena, Mena Intermountain Municipal Airport",34.54528,-94.2025,https://forecast.weather.gov/data/obhistory/KMEZ.html,https://forecast.weather.gov/xml/current_obs/KMEZ.rss,https://forecast.weather.gov/xml/current_obs/KMEZ.xml
KSGT,AR,"Stuttgart, Stuttgart Municipal Airport",34.6,-91.56667,https://forecast.weather.gov/data/obhistory/KSGT.html,https://forecast.weather.gov/xml/current_obs/KSGT.rss,https://forecast.weather.gov/xml/current_obs/KSGT.xml
KMWT,AR,Mount Ida,34.55,-93.58333,https://forecast.weather.gov/data/obhistory/KMWT.html,https://forecast.weather.gov/xml/current_obs/KMWT.rss,https://forecast.weather.gov/xml/current_obs/KMWT.xml
KM19,AR,"Newport, Newport Municipal Airport",35.6375,-91.17611,https://forecast.weather.gov/data/obhistory/KM19.html,https://forecast.weather.gov/xml/current_obs/KM19.rss,https://forecast.weather.gov/xml/current_obs/KM19.xml
KARG,AR,Walnut Ridge Regional Airport,36.12562,-90.92148,https://forecast.weather.gov/data/obhistory/KARG.html,https://forecast.weather.gov/xml/current_obs/KARG.rss,https://forecast.weather.gov/xml/current_obs/KARG.xml
KASG,AR,Springdale Municipal,36.18333,-94.11667,https://forecast.weather.gov/data/obhistory/KASG.html,https://forecast.weather.gov/xml/current_obs/KASG.rss,https://forecast.weather.gov/xml/current_obs/KASG.xml
KSLG,AR,"Siloam Springs, Smith Field Airport",36.2,-94.48333,https://forecast.weather.gov/data/obhistory/KSLG.html,https://forecast.weather.gov/xml/current_obs/KSLG.rss,https://forecast.weather.gov/xml/current_obs/KSLG.xml
KELD,AR,South Arkansas Regional Airport,33.22075,-92.814,https://forecast.weather.gov/data/obhistory/KELD.html,https://forecast.weather.gov/xml/current_obs/KELD.rss,https://forecast.weather.gov/xml/current_obs/KELD.xml
KSRC,AR,Searcy Municipal Airport,35.21349,-91.73928,https://forecast.weather.gov/data/obhistory/KSRC.html,https://forecast.weather.gov/xml/current_obs/KSRC.rss,https://forecast.weather.gov/xml/current_obs/KSRC.xml
K42A,AR,Melbourne Municipal Airport - John E Miller Field,36.07098,-91.83014,https://forecast.weather.gov/data/obhistory/K42A.html,https://forecast.weather.gov/xml/current_obs/K42A.rss,https://forecast.weather.gov/xml/current_obs/K42A.xml
KAWM,AR,"West Memphis, West Memphis Municipal Airport",35.13333,-90.23333,https://forecast.weather.gov/data/obhistory/KAWM.html,https://forecast.weather.gov/xml/current_obs/KAWM.rss,https://forecast.weather.gov/xml/current_obs/KAWM.xml
NSTU,AS,"Pago Pago, AS, Samoa",-14.331,-170.7105,https://forecast.weather.gov/data/obhistory/NSTU.html,https://forecast.weather.gov/xml/current_obs/NSTU.rss,https://forecast.weather.gov/xml/current_obs/NSTU.xml
KCHD,AZ,"Chandler, Chandler Municipal Airport",33.26917,-111.81111,https://forecast.weather.gov/data/obhistory/KCHD.html,https://forecast.weather.gov/xml/current_obs/KCHD.rss,https://forecast.weather.gov/xml/current_obs/KCHD.xml
KBXK,AZ,Buckeye Municipal Airport,33.4204,-112.6862,https://forecast.weather.gov/data/obhistory/KBXK.html,https://forecast.weather.gov/xml/current_obs/KBXK.rss,https://forecast.weather.gov/xml/current_obs/KBXK.xml
KALK,AZ,Pioneer Airfield,31.60564,-110.4281,https://forecast.weather.gov/data/obhistory/KALK.html,https://forecast.weather.gov/xml/current_obs/KALK.rss,https://forecast.weather.gov/xml/current_obs/KALK.xml
KRYN,AZ,Tucson Ryan Field Airport,32.1422,-111.1746,https://forecast.weather.gov/data/obhistory/KRYN.html,https://forecast.weather.gov/xml/current_obs/KRYN.rss,https://forecast.weather.gov/xml/current_obs/KRYN.xml
KNYL,AZ,"Yuma, Marine Corps Air Station",32.65944,-114.59306,https://forecast.weather.gov/data/obhistory/KNYL.html,https://forecast.weather.gov/xml/current_obs/KNYL.rss,https://forecast.weather.gov/xml/current_obs/KNYL.xml
KP33,AZ,Cochise County Airport,32.24541,-109.89463,https://forecast.weather.gov/data/obhistory/KP33.html,https://forecast.weather.gov/xml/current_obs/KP33.rss,https://forecast.weather.gov/xml/current_obs/KP33.xml
KOLS,AZ,"Nogales, Nogales International Airport",31.42083,-110.84583,https://forecast.weather.gov/data/obhistory/KOLS.html,https://forecast.weather.gov/xml/current_obs/KOLS.rss,https://forecast.weather.gov/xml/current_obs/KOLS.xml
KPGA,AZ,"Page, Page Municipal Airport",36.92056,-111.44806,https://forecast.weather.gov/data/obhistory/KPGA.html,https://forecast.weather.gov/xml/current_obs/KPGA.rss,https://forecast.weather.gov/xml/current_obs/KPGA.xml
KPHX,AZ,"Phoenix, Phoenix Sky Harbor International Airport",33.427799,-112.003465,https://forecast.weather.gov/data/obhistory/KPHX.html,https://forecast.weather.gov/xml/current_obs/KPHX.rss,https://forecast.weather.gov/xml/current_obs/KPHX.xml
KPAN,AZ,Payson Airport,34.2568364,-111.3392558,https://forecast.weather.gov/data/obhistory/KPAN.html,https://forecast.weather.gov/xml/current_obs/KPAN.rss,https://forecast.weather.gov/xml/current_obs/KPAN.xml
KPRC,AZ,"Prescott, Love Field",34.64917,-112.42222,https://forecast.weather.gov/data/obhistory/KPRC.html,https://forecast.weather.gov/xml/current_obs/KPRC.rss,https://forecast.weather.gov/xml/current_obs/KPRC.xml
KCMR,AZ,Williams/Clark Memorial Airport,35.3054722,-112.1943889,https://forecast.weather.gov/data/obhistory/KCMR.html,https://forecast.weather.gov/xml/current_obs/KCMR.rss,https://forecast.weather.gov/xml/current_obs/KCMR.xml
KJTC,AZ,Springerville Municipal Airport,34.1294,-109.3109,https://forecast.weather.gov/data/obhistory/KJTC.html,https://forecast.weather.gov/xml/current_obs/KJTC.rss,https://forecast.weather.gov/xml/current_obs/KJTC.xml
KLGF,AZ,Laguna Army Airfield,32.86459,-114.39298,https://forecast.weather.gov/data/obhistory/KLGF.html,https://forecast.weather.gov/xml/current_obs/KLGF.rss,https://forecast.weather.gov/xml/current_obs/KLGF.xml
KRQE,AZ,"Window Rock, Window Rock Airport",35.65,-109.06667,https://forecast.weather.gov/data/obhistory/KRQE.html,https://forecast.weather.gov/xml/current_obs/KRQE.rss,https://forecast.weather.gov/xml/current_obs/KRQE.xml
KSAD,AZ,"Safford, Safford Municipal Airport",32.85722,-109.63556,https://forecast.weather.gov/data/obhistory/KSAD.html,https://forecast.weather.gov/xml/current_obs/KSAD.rss,https://forecast.weather.gov/xml/current_obs/KSAD.xml
KSDL,AZ,Scottsdale Airport,33.61235,-111.92316,https://forecast.weather.gov/data/obhistory/KSDL.html,https://forecast.weather.gov/xml/current_obs/KSDL.rss,https://forecast.weather.gov/xml/current_obs/KSDL.xml
KSJN,AZ,"St. Johns, St. Johns Industrial Airpark",34.51833,-109.37917,https://forecast.weather.gov/data/obhistory/KSJN.html,https://forecast.weather.gov/xml/current_obs/KSJN.rss,https://forecast.weather.gov/xml/current_obs/KSJN.xml
KCGZ,AZ,"Casa Grande, Casa Grande Municipal Airport",32.95,-111.76667,https://forecast.weather.gov/data/obhistory/KCGZ.html,https://forecast.weather.gov/xml/current_obs/KCGZ.rss,https://forecast.weather.gov/xml/current_obs/KCGZ.xml
KA39,AZ,Ak-Chin Regional Airport,32.99,-111.91833,https://forecast.weather.gov/data/obhistory/KA39.html,https://forecast.weather.gov/xml/current_obs/KA39.rss,https://forecast.weather.gov/xml/current_obs/KA39.xml
KP08,AZ,Coolidge Municipal Airport,32.9359,-111.4265,https://forecast.weather.gov/data/obhistory/KP08.html,https://forecast.weather.gov/xml/current_obs/KP08.rss,https://forecast.weather.gov/xml/current_obs/KP08.xml
KSOW,AZ,"Show Low, Show Low Regional Airport",34.26528,-110.00556,https://forecast.weather.gov/data/obhistory/KSOW.html,https://forecast.weather.gov/xml/current_obs/KSOW.rss,https://forecast.weather.gov/xml/current_obs/KSOW.xml
KAZC,AZ,"Colorado City, Colorado City Municipal Airport",36.95,-113,https://forecast.weather.gov/data/obhistory/KAZC.html,https://forecast.weather.gov/xml/current_obs/KAZC.rss,https://forecast.weather.gov/xml/current_obs/KAZC.xml
KTYL,AZ,Taylor Airport,34.45272,-110.11503,https://forecast.weather.gov/data/obhistory/KTYL.html,https://forecast.weather.gov/xml/current_obs/KTYL.rss,https://forecast.weather.gov/xml/current_obs/KTYL.xml
KP52,AZ,Cottonwood Airport,34.73006,-112.03514,https://forecast.weather.gov/data/obhistory/KP52.html,https://forecast.weather.gov/xml/current_obs/KP52.rss,https://forecast.weather.gov/xml/current_obs/KP52.xml
KMZJ,AZ,Pinal Airpark,32.50983,-111.32533,https://forecast.weather.gov/data/obhistory/KMZJ.html,https://forecast.weather.gov/xml/current_obs/KMZJ.rss,https://forecast.weather.gov/xml/current_obs/KMZJ.xml
KDMA,AZ,Davis-Monthan Air Force Base,32.16667,-110.88333,https://forecast.weather.gov/data/obhistory/KDMA.html,https://forecast.weather.gov/xml/current_obs/KDMA.rss,https://forecast.weather.gov/xml/current_obs/KDMA.xml
KDUG,AZ,Bisbee Douglas International Airport,31.45838,-109.60676,https://forecast.weather.gov/data/obhistory/KDUG.html,https://forecast.weather.gov/xml/current_obs/KDUG.rss,https://forecast.weather.gov/xml/current_obs/KDUG.xml
KDVT,AZ,"Phoenix, Phoenix-Deer Valley Municipal Airport",33.69026,-112.06618,https://forecast.weather.gov/data/obhistory/KDVT.html,https://forecast.weather.gov/xml/current_obs/KDVT.rss,https://forecast.weather.gov/xml/current_obs/KDVT.xml
KTUS,AZ,"Tucson, Tucson International Airport",32.13153,-110.95635,https://forecast.weather.gov/data/obhistory/KTUS.html,https://forecast.weather.gov/xml/current_obs/KTUS.rss,https://forecast.weather.gov/xml/current_obs/KTUS.xml
KHII,AZ,Havasu City Airport,34.56595,-114.35224,https://forecast.weather.gov/data/obhistory/KHII.html,https://forecast.weather.gov/xml/current_obs/KHII.rss,https://forecast.weather.gov/xml/current_obs/KHII.xml
KFHU,AZ,"Fort Huachuca, Libby AAF Ft Huachuca",31.58333,-110.33333,https://forecast.weather.gov/data/obhistory/KFHU.html,https://forecast.weather.gov/xml/current_obs/KFHU.rss,https://forecast.weather.gov/xml/current_obs/KFHU.xml
KFLG,AZ,Flagstaff Pulliam Airport,35.14433,-111.66637,https://forecast.weather.gov/data/obhistory/KFLG.html,https://forecast.weather.gov/xml/current_obs/KFLG.rss,https://forecast.weather.gov/xml/current_obs/KFLG.xml
KGXF,AZ,Gila Bend Air Force Auxiliary Field,32.8875,-112.72,https://forecast.weather.gov/data/obhistory/KGXF.html,https://forecast.weather.gov/xml/current_obs/KGXF.rss,https://forecast.weather.gov/xml/current_obs/KGXF.xml
KGCN,AZ,Grand Canyon National Park Airport,35.94582,-112.15538,https://forecast.weather.gov/data/obhistory/KGCN.html,https://forecast.weather.gov/xml/current_obs/KGCN.rss,https://forecast.weather.gov/xml/current_obs/KGCN.xml
KGEU,AZ,"Glendale, Glendale Municipal Airport",33.52722,-112.29528,https://forecast.weather.gov/data/obhistory/KGEU.html,https://forecast.weather.gov/xml/current_obs/KGEU.rss,https://forecast.weather.gov/xml/current_obs/KGEU.xml
KE77,AZ,San Manuel Airport,32.63644,-110.64728,https://forecast.weather.gov/data/obhistory/KE77.html,https://forecast.weather.gov/xml/current_obs/KE77.rss,https://forecast.weather.gov/xml/current_obs/KE77.xml
KGYR,AZ,Goodyear Municipal,33.41667,-112.38333,https://forecast.weather.gov/data/obhistory/KGYR.html,https://forecast.weather.gov/xml/current_obs/KGYR.rss,https://forecast.weather.gov/xml/current_obs/KGYR.xml
KIFP,AZ,"Bullhead City, Laughlin/Bullhead International Airport",35.1575,-114.55944,https://forecast.weather.gov/data/obhistory/KIFP.html,https://forecast.weather.gov/xml/current_obs/KIFP.rss,https://forecast.weather.gov/xml/current_obs/KIFP.xml
KIGM,AZ,"Kingman, Kingman Airport",35.25778,-113.93306,https://forecast.weather.gov/data/obhistory/KIGM.html,https://forecast.weather.gov/xml/current_obs/KIGM.rss,https://forecast.weather.gov/xml/current_obs/KIGM.xml
KINW,AZ,"Winslow, Winslow Municipal Airport",35.02806,-110.72083,https://forecast.weather.gov/data/obhistory/KINW.html,https://forecast.weather.gov/xml/current_obs/KINW.rss,https://forecast.weather.gov/xml/current_obs/KINW.xml
KIWA,AZ,Phoenix-Mesa Gateway Airport,33.31667,-111.65,https://forecast.weather.gov/data/obhistory/KIWA.html,https://forecast.weather.gov/xml/current_obs/KIWA.rss,https://forecast.weather.gov/xml/current_obs/KIWA.xml
KSEZ,AZ,Sedona Airport,34.85,-111.78333,https://forecast.weather.gov/data/obhistory/KSEZ.html,https://forecast.weather.gov/xml/current_obs/KSEZ.rss,https://forecast.weather.gov/xml/current_obs/KSEZ.xml
KLUF,AZ,Luke Air Force Base / Phoenix,33.53333,-112.38333,https://forecast.weather.gov/data/obhistory/KLUF.html,https://forecast.weather.gov/xml/current_obs/KLUF.rss,https://forecast.weather.gov/xml/current_obs/KLUF.xml
KAVQ,AZ,Tucson Marana Regional Airport,32.4096,-111.2184,https://forecast.weather.gov/data/obhistory/KAVQ.html,https://forecast.weather.gov/xml/current_obs/KAVQ.rss,https://forecast.weather.gov/xml/current_obs/KAVQ.xml
CYXX,BC,Abbotsford International Airport,49.03333,-122.36667,https://forecast.weather.gov/data/obhistory/CYXX.html,https://forecast.weather.gov/xml/current_obs/CYXX.rss,https://forecast.weather.gov/xml/current_obs/CYXX.xml
CYYJ,BC,Victoria International Airport,48.64171,-123.43331,https://forecast.weather.gov/data/obhistory/CYYJ.html,https://forecast.weather.gov/xml/current_obs/CYYJ.rss,https://forecast.weather.gov/xml/current_obs/CYYJ.xml
CYVR,BC,Vancouver International Airport,49.18333,-123.16667,https://forecast.weather.gov/data/obhistory/CYVR.html,https://forecast.weather.gov/xml/current_obs/CYVR.rss,https://forecast.weather.gov/xml/current_obs/CYVR.xml
CWLM,BC,Victoria Automatic Weather Reporting System,48.41667,-123.31667,https://forecast.weather.gov/data/obhistory/CWLM.html,https://forecast.weather.gov/xml/current_obs/CWLM.rss,https://forecast.weather.gov/xml/current_obs/CWLM.xml
CWYJ,BC,Victoria University,48.45701,-123.30474,https://forecast.weather.gov/data/obhistory/CWYJ.html,https://forecast.weather.gov/xml/current_obs/CWYJ.rss,https://forecast.weather.gov/xml/current_obs/CWYJ.xml
CYQQ,BC,"Comox, B. C.",49.71667,-124.9,https://forecast.weather.gov/data/obhistory/CYQQ.html,https://forecast.weather.gov/xml/current_obs/CYQQ.rss,https://forecast.weather.gov/xml/current_obs/CYQQ.xml
CWZL,BC,Cumshewa Island Meteorological Aeronautical Presentation System,53.03333,-131.6,https://forecast.weather.gov/data/obhistory/CWZL.html,https://forecast.weather.gov/xml/current_obs/CWZL.rss,https://forecast.weather.gov/xml/current_obs/CWZL.xml
CWWA,BC,W Vancouver Automatic Weather Reporting System,49.35,-123.18333,https://forecast.weather.gov/data/obhistory/CWWA.html,https://forecast.weather.gov/xml/current_obs/CWWA.rss,https://forecast.weather.gov/xml/current_obs/CWWA.xml
CYDQ,BC,Dawson Creek Airport,55.75,-120.18333,https://forecast.weather.gov/data/obhistory/CYDQ.html,https://forecast.weather.gov/xml/current_obs/CYDQ.rss,https://forecast.weather.gov/xml/current_obs/CYDQ.xml
CWKX,BC,Dease Lake Coastal Station,58.4286,-130.01058,https://forecast.weather.gov/data/obhistory/CWKX.html,https://forecast.weather.gov/xml/current_obs/CWKX.rss,https://forecast.weather.gov/xml/current_obs/CWKX.xml
CWEB,BC,"Estevan Point, B. C.",49.38333,-126.55,https://forecast.weather.gov/data/obhistory/CWEB.html,https://forecast.weather.gov/xml/current_obs/CWEB.rss,https://forecast.weather.gov/xml/current_obs/CWEB.xml
CWMM,BC,P. Meadows Coastal Station AWRS,49.20833,-122.68995,https://forecast.weather.gov/data/obhistory/CWMM.html,https://forecast.weather.gov/xml/current_obs/CWMM.rss,https://forecast.weather.gov/xml/current_obs/CWMM.xml
CWEL,BC,Entrance Island Automatic Weather Reporting System,49.21667,-123.8,https://forecast.weather.gov/data/obhistory/CWEL.html,https://forecast.weather.gov/xml/current_obs/CWEL.rss,https://forecast.weather.gov/xml/current_obs/CWEL.xml
CWQK,BC,Race Rocks Automatic Weather Reporting System,48.3,-123.53333,https://forecast.weather.gov/data/obhistory/CWQK.html,https://forecast.weather.gov/xml/current_obs/CWQK.rss,https://forecast.weather.gov/xml/current_obs/CWQK.xml
CWEK,BC,Grey Islet Meteorological Aeronautical Presentation System,54.58333,-130.7,https://forecast.weather.gov/data/obhistory/CWEK.html,https://forecast.weather.gov/xml/current_obs/CWEK.rss,https://forecast.weather.gov/xml/current_obs/CWEK.xml
CWRO,BC,Rose Spit Meteorological Aeronautical Presentation System,54.16081,-131.66043,https://forecast.weather.gov/data/obhistory/CWRO.html,https://forecast.weather.gov/xml/current_obs/CWRO.rss,https://forecast.weather.gov/xml/current_obs/CWRO.xml
CWPF,BC,"Esquimalt Harbour, B. C.",48.43333,-123.43333,https://forecast.weather.gov/data/obhistory/CWPF.html,https://forecast.weather.gov/xml/current_obs/CWPF.rss,https://forecast.weather.gov/xml/current_obs/CWPF.xml
CWZA,BC,Agassiz Automated Reporting Station,49.25,-121.76667,https://forecast.weather.gov/data/obhistory/CWZA.html,https://forecast.weather.gov/xml/current_obs/CWZA.rss,https://forecast.weather.gov/xml/current_obs/CWZA.xml
CWLP,BC,Herbert Island Meteorological Aeronautical Presentation System,50.93333,-127.63333,https://forecast.weather.gov/data/obhistory/CWLP.html,https://forecast.weather.gov/xml/current_obs/CWLP.rss,https://forecast.weather.gov/xml/current_obs/CWLP.xml
CWVF,BC,"Sand Heads CS, B. C.",49.1,-123.3,https://forecast.weather.gov/data/obhistory/CWVF.html,https://forecast.weather.gov/xml/current_obs/CWVF.rss,https://forecast.weather.gov/xml/current_obs/CWVF.xml
CWHL,BC,Holland Rock Automatic Weather Reporting System,54.16667,-130.36667,https://forecast.weather.gov/data/obhistory/CWHL.html,https://forecast.weather.gov/xml/current_obs/CWHL.rss,https://forecast.weather.gov/xml/current_obs/CWHL.xml
CWEZ,BC,Saturna Island Meteorological Aeronautical Presentation System,48.78333,-123.05,https://forecast.weather.gov/data/obhistory/CWEZ.html,https://forecast.weather.gov/xml/current_obs/CWEZ.rss,https://forecast.weather.gov/xml/current_obs/CWEZ.xml
CWSP,BC,Sheringham Automatic Weather Reporting System,48.38333,-123.91667,https://forecast.weather.gov/data/obhistory/CWSP.html,https://forecast.weather.gov/xml/current_obs/CWSP.rss,https://forecast.weather.gov/xml/current_obs/CWSP.xml
CWGT,BC,Sisters Island Automatic Weather Reporting System,49.48333,-124.43333,https://forecast.weather.gov/data/obhistory/CWGT.html,https://forecast.weather.gov/xml/current_obs/CWGT.rss,https://forecast.weather.gov/xml/current_obs/CWGT.xml
CWRU,BC,Solander Island Meteorological Aeronautical Presentation System,50.11667,-127.93333,https://forecast.weather.gov/data/obhistory/CWRU.html,https://forecast.weather.gov/xml/current_obs/CWRU.rss,https://forecast.weather.gov/xml/current_obs/CWRU.xml
CWSK,BC,"Squamish Airport, B. C",49.78333,-123.16667,https://forecast.weather.gov/data/obhistory/CWSK.html,https://forecast.weather.gov/xml/current_obs/CWSK.rss,https://forecast.weather.gov/xml/current_obs/CWSK.xml
CWZO,BC,Kelp Reefs,48.5474,-123.23699,https://forecast.weather.gov/data/obhistory/CWZO.html,https://forecast.weather.gov/xml/current_obs/CWZO.rss,https://forecast.weather.gov/xml/current_obs/CWZO.xml
CWWL,BC,Bonilla Island Meteorological Aeronautical Presentation S,53.49264,-130.63847,https://forecast.weather.gov/data/obhistory/CWWL.html,https://forecast.weather.gov/xml/current_obs/CWWL.rss,https://forecast.weather.gov/xml/current_obs/CWWL.xml
CWQS,BC,"Kindakun Rocks, B. C.",53.31667,-132.75,https://forecast.weather.gov/data/obhistory/CWQS.html,https://forecast.weather.gov/xml/current_obs/CWQS.rss,https://forecast.weather.gov/xml/current_obs/CWQS.xml
CWGW,BC,Sparwood Automatic Weather Reporting System,49.75,-114.9,https://forecast.weather.gov/data/obhistory/CWGW.html,https://forecast.weather.gov/xml/current_obs/CWGW.rss,https://forecast.weather.gov/xml/current_obs/CWGW.xml
CWJR,BC,Creston Automatic Weather Reporting System,49.03982,-116.48254,https://forecast.weather.gov/data/obhistory/CWJR.html,https://forecast.weather.gov/xml/current_obs/CWJR.rss,https://forecast.weather.gov/xml/current_obs/CWJR.xml
CWJV,BC,"Vernon, B. C.",50.23333,-119.3,https://forecast.weather.gov/data/obhistory/CWJV.html,https://forecast.weather.gov/xml/current_obs/CWJV.rss,https://forecast.weather.gov/xml/current_obs/CWJV.xml
CWPZ,BC,"Burns Lake CS , B. C.",54.38333,-125.95,https://forecast.weather.gov/data/obhistory/CWPZ.html,https://forecast.weather.gov/xml/current_obs/CWPZ.rss,https://forecast.weather.gov/xml/current_obs/CWPZ.xml
CWNM,BC,Nelson Automatic Weather Reporting System,49.5,-117.3,https://forecast.weather.gov/data/obhistory/CWNM.html,https://forecast.weather.gov/xml/current_obs/CWNM.rss,https://forecast.weather.gov/xml/current_obs/CWNM.xml
CWNP,BC,Nakusp Automatic Weather Reporting System,50.26667,-117.81667,https://forecast.weather.gov/data/obhistory/CWNP.html,https://forecast.weather.gov/xml/current_obs/CWNP.rss,https://forecast.weather.gov/xml/current_obs/CWNP.xml
CWPR,BC,Princeton Automatic Weather Reporting System,49.4684,-120.5143,https://forecast.weather.gov/data/obhistory/CWPR.html,https://forecast.weather.gov/xml/current_obs/CWPR.rss,https://forecast.weather.gov/xml/current_obs/CWPR.xml
CWSL,BC,Salmon Arm Automatic Weather Reporting System,50.7,-119.28333,https://forecast.weather.gov/data/obhistory/CWSL.html,https://forecast.weather.gov/xml/current_obs/CWSL.rss,https://forecast.weather.gov/xml/current_obs/CWSL.xml
CWUS,BC,Summerland Automatic Weather Reporting System,49.56256,-119.64869,https://forecast.weather.gov/data/obhistory/CWUS.html,https://forecast.weather.gov/xml/current_obs/CWUS.rss,https://forecast.weather.gov/xml/current_obs/CWUS.xml
CWWK,BC,White Rock Automatic Weather Reporting System,49.01667,-122.78333,https://forecast.weather.gov/data/obhistory/CWWK.html,https://forecast.weather.gov/xml/current_obs/CWWK.rss,https://forecast.weather.gov/xml/current_obs/CWWK.xml
CWYY,BC,Osoyoos Automatic Weather Reporting System,49.02827,-119.44099,https://forecast.weather.gov/data/obhistory/CWYY.html,https://forecast.weather.gov/xml/current_obs/CWYY.rss,https://forecast.weather.gov/xml/current_obs/CWYY.xml
CWZV,BC,Cape St. James,51.93602,-131.0158,https://forecast.weather.gov/data/obhistory/CWZV.html,https://forecast.weather.gov/xml/current_obs/CWZV.rss,https://forecast.weather.gov/xml/current_obs/CWZV.xml
CWLC,BC,Lucy Island,54.29602,-130.60793,https://forecast.weather.gov/data/obhistory/CWLC.html,https://forecast.weather.gov/xml/current_obs/CWLC.rss,https://forecast.weather.gov/xml/current_obs/CWLC.xml
CYZY,BC,"Mackenzie, B. C.",55.3,-123.13333,https://forecast.weather.gov/data/obhistory/CYZY.html,https://forecast.weather.gov/xml/current_obs/CYZY.rss,https://forecast.weather.gov/xml/current_obs/CYZY.xml
CWME,BC,Cathedral Point Meteorological Aeronautical Presentation System,52.18333,-127.46667,https://forecast.weather.gov/data/obhistory/CWME.html,https://forecast.weather.gov/xml/current_obs/CWME.rss,https://forecast.weather.gov/xml/current_obs/CWME.xml
KGOO,CA,Nevada County Air Park,39.224028,-121.003083,https://forecast.weather.gov/data/obhistory/KGOO.html,https://forecast.weather.gov/xml/current_obs/KGOO.rss,https://forecast.weather.gov/xml/current_obs/KGOO.xml
KMAE,CA,Madera Municipal Airport,36.9851,-120.11064,https://forecast.weather.gov/data/obhistory/KMAE.html,https://forecast.weather.gov/xml/current_obs/KMAE.rss,https://forecast.weather.gov/xml/current_obs/KMAE.xml
KMCC,CA,"Sacramento, McClellan Airfield Airport",38.66667,-121.4,https://forecast.weather.gov/data/obhistory/KMCC.html,https://forecast.weather.gov/xml/current_obs/KMCC.rss,https://forecast.weather.gov/xml/current_obs/KMCC.xml
KMCE,CA,Merced Regional Airport,37.28306,-120.50778,https://forecast.weather.gov/data/obhistory/KMCE.html,https://forecast.weather.gov/xml/current_obs/KMCE.rss,https://forecast.weather.gov/xml/current_obs/KMCE.xml
KMER,CA,Merced / Castle Air Force Base,37.36667,-120.56667,https://forecast.weather.gov/data/obhistory/KMER.html,https://forecast.weather.gov/xml/current_obs/KMER.rss,https://forecast.weather.gov/xml/current_obs/KMER.xml
KMHR,CA,Sacramento Mather Airport,38.55996,-121.28397,https://forecast.weather.gov/data/obhistory/KMHR.html,https://forecast.weather.gov/xml/current_obs/KMHR.rss,https://forecast.weather.gov/xml/current_obs/KMHR.xml
KMHS,CA,Mount Shasta,41.31494,-122.31702,https://forecast.weather.gov/data/obhistory/KMHS.html,https://forecast.weather.gov/xml/current_obs/KMHS.rss,https://forecast.weather.gov/xml/current_obs/KMHS.xml
KMHV,CA,Mojave,35.06667,-118.15,https://forecast.weather.gov/data/obhistory/KMHV.html,https://forecast.weather.gov/xml/current_obs/KMHV.rss,https://forecast.weather.gov/xml/current_obs/KMHV.xml
KVCV,CA,"Victorville, Southern California Logistics Airport",34.59722,-117.38278,https://forecast.weather.gov/data/obhistory/KVCV.html,https://forecast.weather.gov/xml/current_obs/KVCV.rss,https://forecast.weather.gov/xml/current_obs/KVCV.xml
KMMH,CA,Mammoth Yosemite Airport,37.6241,-118.8423,https://forecast.weather.gov/data/obhistory/KMMH.html,https://forecast.weather.gov/xml/current_obs/KMMH.rss,https://forecast.weather.gov/xml/current_obs/KMMH.xml
KMOD,CA,Modesto City-County Airport - Harry Sham Field,37.62549,-120.9549,https://forecast.weather.gov/data/obhistory/KMOD.html,https://forecast.weather.gov/xml/current_obs/KMOD.rss,https://forecast.weather.gov/xml/current_obs/KMOD.xml
KMRY,CA,Monterey Regional Airport,36.59047,-121.84875,https://forecast.weather.gov/data/obhistory/KMRY.html,https://forecast.weather.gov/xml/current_obs/KMRY.rss,https://forecast.weather.gov/xml/current_obs/KMRY.xml
KMYF,CA,"San Diego, Montgomery Field",32.81444,-117.13639,https://forecast.weather.gov/data/obhistory/KMYF.html,https://forecast.weather.gov/xml/current_obs/KMYF.rss,https://forecast.weather.gov/xml/current_obs/KMYF.xml
KMYV,CA,"Marysville, Yuba County Airport",39.09778,-121.56972,https://forecast.weather.gov/data/obhistory/KMYV.html,https://forecast.weather.gov/xml/current_obs/KMYV.rss,https://forecast.weather.gov/xml/current_obs/KMYV.xml
KNFG,CA,"Oceanside, Camp Pendleton, Marine Corps Air Station",33.30472,-117.35389,https://forecast.weather.gov/data/obhistory/KNFG.html,https://forecast.weather.gov/xml/current_obs/KNFG.rss,https://forecast.weather.gov/xml/current_obs/KNFG.xml
KNID,CA,"China Lake, Naval Air Facility",35.68639,-117.69,https://forecast.weather.gov/data/obhistory/KNID.html,https://forecast.weather.gov/xml/current_obs/KNID.rss,https://forecast.weather.gov/xml/current_obs/KNID.xml
KWHP,CA,"Los Angeles, Whiteman Airport",34.25,-118.4,https://forecast.weather.gov/data/obhistory/KWHP.html,https://forecast.weather.gov/xml/current_obs/KWHP.rss,https://forecast.weather.gov/xml/current_obs/KWHP.xml
KNJK,CA,"El Centro, Naval Air Facility",32.825,-115.66056,https://forecast.weather.gov/data/obhistory/KNJK.html,https://forecast.weather.gov/xml/current_obs/KNJK.rss,https://forecast.weather.gov/xml/current_obs/KNJK.xml
KNKX,CA,"San Diego, Miramar MCAS/Mitscher Field Airport",32.86833,-117.1425,https://forecast.weather.gov/data/obhistory/KNKX.html,https://forecast.weather.gov/xml/current_obs/KNKX.rss,https://forecast.weather.gov/xml/current_obs/KNKX.xml
KNLC,CA,Lemoore Naval Air Station - Reeves Field,36.30244,-119.93968,https://forecast.weather.gov/data/obhistory/KNLC.html,https://forecast.weather.gov/xml/current_obs/KNLC.rss,https://forecast.weather.gov/xml/current_obs/KNLC.xml
KNRS,CA,Imperial Beach Naval Outlying Field - Ream Field,32.56302,-117.11091,https://forecast.weather.gov/data/obhistory/KNRS.html,https://forecast.weather.gov/xml/current_obs/KNRS.rss,https://forecast.weather.gov/xml/current_obs/KNRS.xml
KNSI,CA,San Nicolas Island Naval Outlying Field,33.23379,-119.45588,https://forecast.weather.gov/data/obhistory/KNSI.html,https://forecast.weather.gov/xml/current_obs/KNSI.rss,https://forecast.weather.gov/xml/current_obs/KNSI.xml
KNTD,CA,"Point Mugu, Naval Air Warfare Center",34.12389,-119.12167,https://forecast.weather.gov/data/obhistory/KNTD.html,https://forecast.weather.gov/xml/current_obs/KNTD.rss,https://forecast.weather.gov/xml/current_obs/KNTD.xml
KNUC,CA,San Clemente Island NALF,33.0218,-118.58266,https://forecast.weather.gov/data/obhistory/KNUC.html,https://forecast.weather.gov/xml/current_obs/KNUC.rss,https://forecast.weather.gov/xml/current_obs/KNUC.xml
KNUQ,CA,"Mountain View, Moffett Field",37.40583,-122.04806,https://forecast.weather.gov/data/obhistory/KNUQ.html,https://forecast.weather.gov/xml/current_obs/KNUQ.rss,https://forecast.weather.gov/xml/current_obs/KNUQ.xml
KNXP,CA,Twentynine Palms SELF Airport,34.29401,-116.14717,https://forecast.weather.gov/data/obhistory/KNXP.html,https://forecast.weather.gov/xml/current_obs/KNXP.rss,https://forecast.weather.gov/xml/current_obs/KNXP.xml
KNZY,CA,"San Diego, North Island, Naval Air Station",32.69083,-117.20889,https://forecast.weather.gov/data/obhistory/KNZY.html,https://forecast.weather.gov/xml/current_obs/KNZY.rss,https://forecast.weather.gov/xml/current_obs/KNZY.xml
KOAK,CA,San Francisco Bay Oakland International Airport,37.72126,-122.22115,https://forecast.weather.gov/data/obhistory/KOAK.html,https://forecast.weather.gov/xml/current_obs/KOAK.rss,https://forecast.weather.gov/xml/current_obs/KOAK.xml
KOAR,CA,FORT ORD/FRITZSCHE,36.68,-121.77,https://forecast.weather.gov/data/obhistory/KOAR.html,https://forecast.weather.gov/xml/current_obs/KOAR.rss,https://forecast.weather.gov/xml/current_obs/KOAR.xml
KOKB,CA,"Oceanside, Oceanside Municipal Airport",33.21806,-117.35139,https://forecast.weather.gov/data/obhistory/KOKB.html,https://forecast.weather.gov/xml/current_obs/KOKB.rss,https://forecast.weather.gov/xml/current_obs/KOKB.xml
KFCH,CA,Fresno Chandler Executive Airport,36.73096,-119.81465,https://forecast.weather.gov/data/obhistory/KFCH.html,https://forecast.weather.gov/xml/current_obs/KFCH.rss,https://forecast.weather.gov/xml/current_obs/KFCH.xml
KONT,CA,Ontario International Airport,34.05316,-117.57685,https://forecast.weather.gov/data/obhistory/KONT.html,https://forecast.weather.gov/xml/current_obs/KONT.rss,https://forecast.weather.gov/xml/current_obs/KONT.xml
KCPU,CA,San Andreas Calaveras County Airport,38.1461,-120.6482,https://forecast.weather.gov/data/obhistory/KCPU.html,https://forecast.weather.gov/xml/current_obs/KCPU.rss,https://forecast.weather.gov/xml/current_obs/KCPU.xml
KOVE,CA,Oroville Municipal Airport,39.49436,-121.62223,https://forecast.weather.gov/data/obhistory/KOVE.html,https://forecast.weather.gov/xml/current_obs/KOVE.rss,https://forecast.weather.gov/xml/current_obs/KOVE.xml
KOXR,CA,"Oxnard, Oxnard Airport",34.20056,-119.20306,https://forecast.weather.gov/data/obhistory/KOXR.html,https://forecast.weather.gov/xml/current_obs/KOXR.rss,https://forecast.weather.gov/xml/current_obs/KOXR.xml
KHAF,CA,Half Moon Bay Airport,37.5136,-122.4996,https://forecast.weather.gov/data/obhistory/KHAF.html,https://forecast.weather.gov/xml/current_obs/KHAF.rss,https://forecast.weather.gov/xml/current_obs/KHAF.xml
KTSP,CA,Tehachapi Municipal Airport,35.135,-118.4392,https://forecast.weather.gov/data/obhistory/KTSP.html,https://forecast.weather.gov/xml/current_obs/KTSP.rss,https://forecast.weather.gov/xml/current_obs/KTSP.xml
KPAO,CA,Palo Alto Airport,37.46667,-122.11667,https://forecast.weather.gov/data/obhistory/KPAO.html,https://forecast.weather.gov/xml/current_obs/KPAO.rss,https://forecast.weather.gov/xml/current_obs/KPAO.xml
KCVH,CA,"Hollister, CA",36.8933,-121.4103,https://forecast.weather.gov/data/obhistory/KCVH.html,https://forecast.weather.gov/xml/current_obs/KCVH.rss,https://forecast.weather.gov/xml/current_obs/KCVH.xml
KO69,CA,Petaluma Municipal Airport,38.2578,-122.6053,https://forecast.weather.gov/data/obhistory/KO69.html,https://forecast.weather.gov/xml/current_obs/KO69.rss,https://forecast.weather.gov/xml/current_obs/KO69.xml
KL18,CA,Fallbrook Community Airpark,33.3542,-117.2509,https://forecast.weather.gov/data/obhistory/KL18.html,https://forecast.weather.gov/xml/current_obs/KL18.rss,https://forecast.weather.gov/xml/current_obs/KL18.xml
KPMD,CA,"Palmdale, Palmdale Production Flight Plant",34.62972,-118.08139,https://forecast.weather.gov/data/obhistory/KPMD.html,https://forecast.weather.gov/xml/current_obs/KPMD.rss,https://forecast.weather.gov/xml/current_obs/KPMD.xml
KPOC,CA,Brackett Field Airport,34.09282,-117.77937,https://forecast.weather.gov/data/obhistory/KPOC.html,https://forecast.weather.gov/xml/current_obs/KPOC.rss,https://forecast.weather.gov/xml/current_obs/KPOC.xml
KPRB,CA,Paso Robles Municipal Airport,35.66941,-120.62912,https://forecast.weather.gov/data/obhistory/KPRB.html,https://forecast.weather.gov/xml/current_obs/KPRB.rss,https://forecast.weather.gov/xml/current_obs/KPRB.xml
KE16,CA,South County Airport of Santa Clara County,37.0815861,-121.5968056,https://forecast.weather.gov/data/obhistory/KE16.html,https://forecast.weather.gov/xml/current_obs/KE16.rss,https://forecast.weather.gov/xml/current_obs/KE16.xml
KPSP,CA,Palm Springs Regional Airport,33.82219,-116.50431,https://forecast.weather.gov/data/obhistory/KPSP.html,https://forecast.weather.gov/xml/current_obs/KPSP.rss,https://forecast.weather.gov/xml/current_obs/KPSP.xml
KPTV,CA,"Porterville, Porterville Municipal Airport",36.03333,-119.06667,https://forecast.weather.gov/data/obhistory/KPTV.html,https://forecast.weather.gov/xml/current_obs/KPTV.rss,https://forecast.weather.gov/xml/current_obs/KPTV.xml
KLLR,CA,LITTLERIVER,39.26204,-123.75373,https://forecast.weather.gov/data/obhistory/KLLR.html,https://forecast.weather.gov/xml/current_obs/KLLR.rss,https://forecast.weather.gov/xml/current_obs/KLLR.xml
KAAT,CA,Alturas,41.48362,-120.5615,https://forecast.weather.gov/data/obhistory/KAAT.html,https://forecast.weather.gov/xml/current_obs/KAAT.rss,https://forecast.weather.gov/xml/current_obs/KAAT.xml
KACV,CA,"Arcata / Eureka, Arcata Airport",40.97806,-124.10861,https://forecast.weather.gov/data/obhistory/KACV.html,https://forecast.weather.gov/xml/current_obs/KACV.rss,https://forecast.weather.gov/xml/current_obs/KACV.xml
KRAL,CA,Riverside Municipal Airport,33.95189,-117.44511,https://forecast.weather.gov/data/obhistory/KRAL.html,https://forecast.weather.gov/xml/current_obs/KRAL.rss,https://forecast.weather.gov/xml/current_obs/KRAL.xml
KRBL,CA,"Red Bluff, Red Bluff Municipal Airport",40.15056,-122.25222,https://forecast.weather.gov/data/obhistory/KRBL.html,https://forecast.weather.gov/xml/current_obs/KRBL.rss,https://forecast.weather.gov/xml/current_obs/KRBL.xml
KRDD,CA,Redding Municipal Airport,40.51461,-122.2977,https://forecast.weather.gov/data/obhistory/KRDD.html,https://forecast.weather.gov/xml/current_obs/KRDD.rss,https://forecast.weather.gov/xml/current_obs/KRDD.xml
KDVO,CA,Novato / Gnoss Field,38.14178,-122.55463,https://forecast.weather.gov/data/obhistory/KDVO.html,https://forecast.weather.gov/xml/current_obs/KDVO.rss,https://forecast.weather.gov/xml/current_obs/KDVO.xml
KRHV,CA,San Jose / Reid / Hillv,37.33333,-121.81667,https://forecast.weather.gov/data/obhistory/KRHV.html,https://forecast.weather.gov/xml/current_obs/KRHV.rss,https://forecast.weather.gov/xml/current_obs/KRHV.xml
KIZA,CA,"Santa Ynez, Santa Ynez Airport",34.60694,-120.07556,https://forecast.weather.gov/data/obhistory/KIZA.html,https://forecast.weather.gov/xml/current_obs/KIZA.rss,https://forecast.weather.gov/xml/current_obs/KIZA.xml
KAPC,CA,"Napa, Napa County Airport",38.2075,-122.27944,https://forecast.weather.gov/data/obhistory/KAPC.html,https://forecast.weather.gov/xml/current_obs/KAPC.rss,https://forecast.weather.gov/xml/current_obs/KAPC.xml
KRIV,CA,March Air Reserve Base,33.88194,-117.25902,https://forecast.weather.gov/data/obhistory/KRIV.html,https://forecast.weather.gov/xml/current_obs/KRIV.rss,https://forecast.weather.gov/xml/current_obs/KRIV.xml
KCCB,CA,Cable Airport,34.11161,-117.68739,https://forecast.weather.gov/data/obhistory/KCCB.html,https://forecast.weather.gov/xml/current_obs/KCCB.rss,https://forecast.weather.gov/xml/current_obs/KCCB.xml
KDLO,CA,Delano Municipal Airport,35.74556,-119.2365,https://forecast.weather.gov/data/obhistory/KDLO.html,https://forecast.weather.gov/xml/current_obs/KDLO.rss,https://forecast.weather.gov/xml/current_obs/KDLO.xml
KRNM,CA,"Ramona, Ramona Airport",33.0375,-116.91583,https://forecast.weather.gov/data/obhistory/KRNM.html,https://forecast.weather.gov/xml/current_obs/KRNM.rss,https://forecast.weather.gov/xml/current_obs/KRNM.xml
KTCY,CA,Tracy Municipal Airport,37.6889,-121.44158,https://forecast.weather.gov/data/obhistory/KTCY.html,https://forecast.weather.gov/xml/current_obs/KTCY.rss,https://forecast.weather.gov/xml/current_obs/KTCY.xml
KO22,CA,COLUMBIA,38.03,-120.42,https://forecast.weather.gov/data/obhistory/KO22.html,https://forecast.weather.gov/xml/current_obs/KO22.rss,https://forecast.weather.gov/xml/current_obs/KO22.xml
KO05,CA,Rogers Field Airport,40.28236,-121.24117,https://forecast.weather.gov/data/obhistory/KO05.html,https://forecast.weather.gov/xml/current_obs/KO05.rss,https://forecast.weather.gov/xml/current_obs/KO05.xml
KWVI,CA,"Watsonville, Watsonville Municipal Airport",36.93944,-121.78889,https://forecast.weather.gov/data/obhistory/KWVI.html,https://forecast.weather.gov/xml/current_obs/KWVI.rss,https://forecast.weather.gov/xml/current_obs/KWVI.xml
KBAB,CA,"Marysville, Beale Air Force Base",39.13333,-121.43333,https://forecast.weather.gov/data/obhistory/KBAB.html,https://forecast.weather.gov/xml/current_obs/KBAB.rss,https://forecast.weather.gov/xml/current_obs/KBAB.xml
KPVF,CA,Placerville Airport,38.7242,-120.7533,https://forecast.weather.gov/data/obhistory/KPVF.html,https://forecast.weather.gov/xml/current_obs/KPVF.rss,https://forecast.weather.gov/xml/current_obs/KPVF.xml
KLHM,CA,Lincoln Regional Karl Harder Field,38.9092,-121.3513,https://forecast.weather.gov/data/obhistory/KLHM.html,https://forecast.weather.gov/xml/current_obs/KLHM.rss,https://forecast.weather.gov/xml/current_obs/KLHM.xml
KF70,CA,Murrieta/Temecula French Valley,33.5742,-117.1285,https://forecast.weather.gov/data/obhistory/KF70.html,https://forecast.weather.gov/xml/current_obs/KF70.rss,https://forecast.weather.gov/xml/current_obs/KF70.xml
KAJO,CA,Corona Airport,33.8977,-117.6024,https://forecast.weather.gov/data/obhistory/KAJO.html,https://forecast.weather.gov/xml/current_obs/KAJO.rss,https://forecast.weather.gov/xml/current_obs/KAJO.xml
KBFL,CA,"Bakersfield, Meadows Field Airport",35.43361,-119.05667,https://forecast.weather.gov/data/obhistory/KBFL.html,https://forecast.weather.gov/xml/current_obs/KBFL.rss,https://forecast.weather.gov/xml/current_obs/KBFL.xml
KMWS,CA,MOUNT WILSON,34.22,-118.07,https://forecast.weather.gov/data/obhistory/KMWS.html,https://forecast.weather.gov/xml/current_obs/KMWS.rss,https://forecast.weather.gov/xml/current_obs/KMWS.xml
KBIH,CA,"Bishop, Bishop Airport",37.37111,-118.35806,https://forecast.weather.gov/data/obhistory/KBIH.html,https://forecast.weather.gov/xml/current_obs/KBIH.rss,https://forecast.weather.gov/xml/current_obs/KBIH.xml
KSAC,CA,Sacramento Executive Airport,38.50674,-121.49597,https://forecast.weather.gov/data/obhistory/KSAC.html,https://forecast.weather.gov/xml/current_obs/KSAC.rss,https://forecast.weather.gov/xml/current_obs/KSAC.xml
KBLH,CA,"Blythe, Blythe Airport",33.61917,-114.71694,https://forecast.weather.gov/data/obhistory/KBLH.html,https://forecast.weather.gov/xml/current_obs/KBLH.rss,https://forecast.weather.gov/xml/current_obs/KBLH.xml
KSAN,CA,San Diego International Airport,32.73361,-117.18306,https://forecast.weather.gov/data/obhistory/KSAN.html,https://forecast.weather.gov/xml/current_obs/KSAN.rss,https://forecast.weather.gov/xml/current_obs/KSAN.xml
KSBA,CA,"Santa Barbara, Santa Barbara Municipal Airport",34.42611,-119.84361,https://forecast.weather.gov/data/obhistory/KSBA.html,https://forecast.weather.gov/xml/current_obs/KSBA.rss,https://forecast.weather.gov/xml/current_obs/KSBA.xml
KC83,CA,Byron,37.8276,-121.6244,https://forecast.weather.gov/data/obhistory/KC83.html,https://forecast.weather.gov/xml/current_obs/KC83.rss,https://forecast.weather.gov/xml/current_obs/KC83.xml
KL08,CA,Borrego Valley Airport,33.25903,-116.32097,https://forecast.weather.gov/data/obhistory/KL08.html,https://forecast.weather.gov/xml/current_obs/KL08.rss,https://forecast.weather.gov/xml/current_obs/KL08.xml
KBLU,CA,"Emigrant Gap, Blue Canyon Nyack Airport",39.27611,-120.70806,https://forecast.weather.gov/data/obhistory/KBLU.html,https://forecast.weather.gov/xml/current_obs/KBLU.rss,https://forecast.weather.gov/xml/current_obs/KBLU.xml
KSBD,CA,San Bernardino Intl. Airport,34.09027,-117.24705,https://forecast.weather.gov/data/obhistory/KSBD.html,https://forecast.weather.gov/xml/current_obs/KSBD.rss,https://forecast.weather.gov/xml/current_obs/KSBD.xml
KSBP,CA,"San Luis Obispo, San Luis Obispo County-Mc Chesney Field",35.23611,-120.63611,https://forecast.weather.gov/data/obhistory/KSBP.html,https://forecast.weather.gov/xml/current_obs/KSBP.rss,https://forecast.weather.gov/xml/current_obs/KSBP.xml
KSCK,CA,"Stockton, Stockton Metropolitan Airport",37.88972,-121.22361,https://forecast.weather.gov/data/obhistory/KSCK.html,https://forecast.weather.gov/xml/current_obs/KSCK.rss,https://forecast.weather.gov/xml/current_obs/KSCK.xml
KSDB,CA,Sandberg,34.74361,-118.72444,https://forecast.weather.gov/data/obhistory/KSDB.html,https://forecast.weather.gov/xml/current_obs/KSDB.rss,https://forecast.weather.gov/xml/current_obs/KSDB.xml
KBUR,CA,Burbank - Bob Hope Airport,34.19967,-118.36538,https://forecast.weather.gov/data/obhistory/KBUR.html,https://forecast.weather.gov/xml/current_obs/KBUR.rss,https://forecast.weather.gov/xml/current_obs/KBUR.xml
KSDM,CA,"San Diego, Brown Field Municipal Airport",32.57528,-116.99306,https://forecast.weather.gov/data/obhistory/KSDM.html,https://forecast.weather.gov/xml/current_obs/KSDM.rss,https://forecast.weather.gov/xml/current_obs/KSDM.xml
MMTJ,CA,Tijuana International Airport,32.55,-116.96667,https://forecast.weather.gov/data/obhistory/MMTJ.html,https://forecast.weather.gov/xml/current_obs/MMTJ.rss,https://forecast.weather.gov/xml/current_obs/MMTJ.xml
KL35,CA,Big Bear City Airport,34.2638,-116.856,https://forecast.weather.gov/data/obhistory/KL35.html,https://forecast.weather.gov/xml/current_obs/KL35.rss,https://forecast.weather.gov/xml/current_obs/KL35.xml
KSEE,CA,Gillespie Field Airport,32.82738,-116.97369,https://forecast.weather.gov/data/obhistory/KSEE.html,https://forecast.weather.gov/xml/current_obs/KSEE.rss,https://forecast.weather.gov/xml/current_obs/KSEE.xml
KO54,CA,Weaverville,40.746,-122.9223,https://forecast.weather.gov/data/obhistory/KO54.html,https://forecast.weather.gov/xml/current_obs/KO54.rss,https://forecast.weather.gov/xml/current_obs/KO54.xml
KBYS,CA,"Fort Irwin/Barstow, Bicycle Lake Army Airfield",35.28333,-116.61667,https://forecast.weather.gov/data/obhistory/KBYS.html,https://forecast.weather.gov/xml/current_obs/KBYS.rss,https://forecast.weather.gov/xml/current_obs/KBYS.xml
KSFO,CA,"San Francisco, San Francisco International Airport",37.61961,-122.36558,https://forecast.weather.gov/data/obhistory/KSFO.html,https://forecast.weather.gov/xml/current_obs/KSFO.rss,https://forecast.weather.gov/xml/current_obs/KSFO.xml
KCCR,CA,"Concord, Buchanan Field",37.99167,-122.05194,https://forecast.weather.gov/data/obhistory/KCCR.html,https://forecast.weather.gov/xml/current_obs/KCCR.rss,https://forecast.weather.gov/xml/current_obs/KCCR.xml
KSIY,CA,Montague Siskiyou County Airport,41.77375,-122.46817,https://forecast.weather.gov/data/obhistory/KSIY.html,https://forecast.weather.gov/xml/current_obs/KSIY.rss,https://forecast.weather.gov/xml/current_obs/KSIY.xml
KSJC,CA,"San Jose, San Jose International Airport",37.35917,-121.92417,https://forecast.weather.gov/data/obhistory/KSJC.html,https://forecast.weather.gov/xml/current_obs/KSJC.rss,https://forecast.weather.gov/xml/current_obs/KSJC.xml
KCEC,CA,"Crescent City, Jack McNamara Field Airport",41.78028,-124.23667,https://forecast.weather.gov/data/obhistory/KCEC.html,https://forecast.weather.gov/xml/current_obs/KCEC.rss,https://forecast.weather.gov/xml/current_obs/KCEC.xml
KJAQ,CA,Westover Field - Amador County Airport,38.3768,-120.79391,https://forecast.weather.gov/data/obhistory/KJAQ.html,https://forecast.weather.gov/xml/current_obs/KJAQ.rss,https://forecast.weather.gov/xml/current_obs/KJAQ.xml
KCIC,CA,Chico Municipal Airport,39.79879,-121.85795,https://forecast.weather.gov/data/obhistory/KCIC.html,https://forecast.weather.gov/xml/current_obs/KCIC.rss,https://forecast.weather.gov/xml/current_obs/KCIC.xml
KDWA,CA,Yolo County Airport,38.57939,-121.85694,https://forecast.weather.gov/data/obhistory/KDWA.html,https://forecast.weather.gov/xml/current_obs/KDWA.rss,https://forecast.weather.gov/xml/current_obs/KDWA.xml
KCMA,CA,"Camarillo, Camarillo Airport",34.21667,-119.08333,https://forecast.weather.gov/data/obhistory/KCMA.html,https://forecast.weather.gov/xml/current_obs/KCMA.rss,https://forecast.weather.gov/xml/current_obs/KCMA.xml
KSLI,CA,Los Alamitos Army Airfield,33.79628,-118.04179,https://forecast.weather.gov/data/obhistory/KSLI.html,https://forecast.weather.gov/xml/current_obs/KSLI.rss,https://forecast.weather.gov/xml/current_obs/KSLI.xml
KO26,CA,Lone Pine/Death Valley Airport,36.58869,-118.04939,https://forecast.weather.gov/data/obhistory/KO26.html,https://forecast.weather.gov/xml/current_obs/KO26.rss,https://forecast.weather.gov/xml/current_obs/KO26.xml
KSMF,CA,Sacramento International Airport,38.70071,-121.59479,https://forecast.weather.gov/data/obhistory/KSMF.html,https://forecast.weather.gov/xml/current_obs/KSMF.rss,https://forecast.weather.gov/xml/current_obs/KSMF.xml
KCNO,CA,"Chino, Chino Airport",33.97556,-117.62361,https://forecast.weather.gov/data/obhistory/KCNO.html,https://forecast.weather.gov/xml/current_obs/KCNO.rss,https://forecast.weather.gov/xml/current_obs/KCNO.xml
KSMO,CA,"Santa Monica, Santa Monica Municipal Airport",34.01583,-118.45139,https://forecast.weather.gov/data/obhistory/KSMO.html,https://forecast.weather.gov/xml/current_obs/KSMO.rss,https://forecast.weather.gov/xml/current_obs/KSMO.xml
KSMX,CA,Santa Maria Public Airport/Capt G Allan Hancock Field,34.89408,-120.45212,https://forecast.weather.gov/data/obhistory/KSMX.html,https://forecast.weather.gov/xml/current_obs/KSMX.rss,https://forecast.weather.gov/xml/current_obs/KSMX.xml
KSNA,CA,John Wayne-Orange County Airport,33.6798,-117.8674,https://forecast.weather.gov/data/obhistory/KSNA.html,https://forecast.weather.gov/xml/current_obs/KSNA.rss,https://forecast.weather.gov/xml/current_obs/KSNA.xml
KSNS,CA,"Salinas, Salinas Municipal Airport",36.66361,-121.60806,https://forecast.weather.gov/data/obhistory/KSNS.html,https://forecast.weather.gov/xml/current_obs/KSNS.rss,https://forecast.weather.gov/xml/current_obs/KSNS.xml
KCRQ,CA,"Carlsbad, McClellan-Palomar Airport",33.13,-117.27583,https://forecast.weather.gov/data/obhistory/KCRQ.html,https://forecast.weather.gov/xml/current_obs/KCRQ.rss,https://forecast.weather.gov/xml/current_obs/KCRQ.xml
KTQS,CA,Vandenberg SFB - South,34.633,-120.617,https://forecast.weather.gov/data/obhistory/KTQS.html,https://forecast.weather.gov/xml/current_obs/KTQS.rss,https://forecast.weather.gov/xml/current_obs/KTQS.xml
KSQL,CA,San Carlos Airport,37.51667,-122.25,https://forecast.weather.gov/data/obhistory/KSQL.html,https://forecast.weather.gov/xml/current_obs/KSQL.rss,https://forecast.weather.gov/xml/current_obs/KSQL.xml
KSTS,CA,"Santa Rosa, Santa Rosa Sonoma County Airport",38.5,-122.81667,https://forecast.weather.gov/data/obhistory/KSTS.html,https://forecast.weather.gov/xml/current_obs/KSTS.rss,https://forecast.weather.gov/xml/current_obs/KSTS.xml
KSUU,CA,Fairfield / Travis Air Force Base,38.26667,-121.95,https://forecast.weather.gov/data/obhistory/KSUU.html,https://forecast.weather.gov/xml/current_obs/KSUU.rss,https://forecast.weather.gov/xml/current_obs/KSUU.xml
KSVE,CA,Susanville Municipal Airport,40.37569,-120.57269,https://forecast.weather.gov/data/obhistory/KSVE.html,https://forecast.weather.gov/xml/current_obs/KSVE.rss,https://forecast.weather.gov/xml/current_obs/KSVE.xml
KDAG,CA,"Daggett, Barstow-Daggett Airport",34.85361,-116.78667,https://forecast.weather.gov/data/obhistory/KDAG.html,https://forecast.weather.gov/xml/current_obs/KDAG.rss,https://forecast.weather.gov/xml/current_obs/KDAG.xml
KTOA,CA,"Torrance, Zamperini Field Airport",33.8,-118.33333,https://forecast.weather.gov/data/obhistory/KTOA.html,https://forecast.weather.gov/xml/current_obs/KTOA.rss,https://forecast.weather.gov/xml/current_obs/KTOA.xml
